county_fips,state_fips,state_name,county_name,total_population,female-percent,area,population_density,latitude,longitude,hospital_beds,ventilator_capacity,icu_beds,poverty_estimate,median_household_income,gdp_per_capita,houses_density,less_than_high_school_diploma,high_school_diploma_only,some_college_or_associates_degree,bachelors_degree_or_higher,age_0_39,age_40_59,age_60_79,age_80_or_higher,total_college_population,smokers,diabetes
1001,1,Alabama,Autauga County,55601,0.5144871495116994,594.44,93.53509185,32.53952745,-86.64408227,0.0008992644017193935,8.992644017193935e-05,0.00010791172820632722,7587,59338,26.87,39.9267,11.3,32.6,28.4,27.7,56,28,14,2,0.0,18.08155718,11.1
1003,1,Alabama,Baldwin County,218022,0.5153837686105072,1589.78,137.13973000000001,30.72774991,-87.72207058,0.0013668345396336149,0.000261441505903074,0.00023392134738696094,21069,57588,27.75,73.363,9.7,27.6,31.3,31.3,48,28,20,4,1.1556907101118237,17.489032597,10.7
1005,1,Alabama,Barbour County,24881,0.4721675173827419,884.88,28.1179369,31.868263,-85.3871286,0.0018889916000160766,0.00016076524255455969,0.00020095655319319963,6788,34382,30.54,13.5668,27.0,35.7,25.1,12.2,52,29,17,4,0.0,21.999984528,17.6
1007,1,Alabama,Bibb County,22400,0.4678125,622.58,35.9793119,32.99642064,-87.12511459999997,0.008035714285714285,0.00017857142857142857,0.00017857142857142857,4400,46064,16.17,14.8399,16.8,47.3,24.4,11.5,54,28,15,3,0.0,19.114199885,14.5
1009,1,Alabama,Blount County,57840,0.5072614107883817,644.78,89.70501566,33.98210918,-86.56790593,0.00041493775933609963,0.00010373443983402491,0.00010373443983402491,7527,50412,14.73,37.8873,19.8,34.0,33.5,12.6,51,27,18,3,0.0,19.20867197,17.0
1011,1,Alabama,Bullock County,10138,0.4548234365752614,622.81,16.27783754,32.10030533,-85.71265535,0.005326494377589268,0.0004931939238508582,0.0004931939238508582,3610,29267,23.59,7.3088,24.8,39.7,22.3,13.3,54,29,16,3,0.0,22.894664011,23.7
1013,1,Alabama,Butler County,19680,0.5342987804878049,776.83,25.333728100000002,31.75300095,-86.68057478,0.0030995934959349588,0.0004065040650406504,0.00035569105691056913,4731,37365,28.5,12.9848,15.4,43.9,24.6,16.1,51,27,18,4,0.0,21.765334963,19.2
1015,1,Alabama,Calhoun County,114277,0.5194658592717695,605.87,188.6163698,33.77483727,-85.82630386,0.0021701654751174783,0.0002012653464826693,0.0002625200171513078,21719,45400,34.32,88.9432,15.9,32.4,33.7,18.0,52,27,17,4,0.6800843564321779,20.612560375,17.5
1017,1,Alabama,Chambers County,33615,0.5212553919381229,596.53,56.35089602,32.91360079,-85.39072749,0.0,0.0005652238583965493,0.0004462293618920125,6181,39917,57.39,28.5367,18.6,38.4,29.7,13.2,50,29,19,4,0.0,19.392927053,19.9
1019,1,Alabama,Cherokee County,26032,0.5046097111247695,553.7,47.01462886,34.17805983,-85.60638968,0.0017286416717885679,0.0003457283343577136,0.00030731407498463427,4180,42132,19.26,30.0903,19.8,38.3,29.0,12.9,44,29,22,3,0.0,17.498673785,15.2
1021,1,Alabama,Chilton County,44153,0.5092519194618712,692.85,63.72663636,32.85044126,-86.7173256,0.0007926981179081829,0.00015853962358163654,0.00013589110592711706,7542,47547,19.07,28.5646,17.8,44.1,24.0,14.2,54,27,17,3,0.0,20.188979064,18.6
1023,1,Alabama,Choctaw County,12841,0.5272953819795966,913.5,14.05692392,32.02227341,-88.26564429999998,0.0019468888715832103,0.0003115022194533136,0.0003115022194533136,2806,39907,41.89,8.0941,18.6,38.2,30.2,13.0,46,29,21,4,0.0,18.79324829,17.4
1025,1,Alabama,Clarke County,23920,0.5264214046822743,1238.47,19.31415375,31.68099859,-87.83548597,0.002508361204013378,0.00045986622073578606,0.0004180602006688963,5381,40741,32.17,10.3418,18.8,43.7,24.9,12.6,51,29,18,4,0.009531772575250836,20.579655316,22.4
1027,1,Alabama,Clay County,13275,0.5109604519774011,603.96,21.97993245,33.26984193,-85.85836077,0.009717514124293784,0.00030131826741996233,0.00030131826741996233,2285,39201,25.36,11.317,24.5,36.3,29.1,10.2,47,29,19,4,0.0,19.620354153,13.5
1029,1,Alabama,Cleburne County,14987,0.5048375258557416,560.1,26.75772184,33.67679204,-85.52005899,0.0,,,2356,46495,19.68,12.23,22.6,39.6,24.1,13.7,49,28,19,4,0.0,18.374465772,12.5
1031,1,Alabama,Coffee County,51909,0.5083511529792522,678.97,76.45256786,31.39932826,-85.98901039,0.0018879192432911442,0.000134851374520796,0.000134851374520796,7053,55122,28.67,34.2769,13.8,27.9,34.9,23.4,53,27,17,4,0.3005259203606311,17.444757594,16.1
1033,1,Alabama,Colbert County,54762,0.5204886600197217,592.62,92.40660119,34.69847452,-87.80168544,0.005113034586026807,0.0004199992695664877,0.00040173843175924913,7459,49055,50.57,45.1065,15.6,36.0,29.7,18.7,50,29,18,4,0.5902998429567948,18.658821061,16.2
1035,1,Alabama,Conecuh County,12277,0.5209741793597784,850.16,14.44081114,31.43401703,-86.99320044,0.003095218701637208,0.0007330781135456545,0.0006516249898183595,2979,32613,35.93,8.4419,19.2,48.8,21.3,10.7,47,29,20,5,0.2969780891097173,21.107512965,25.9
1037,1,Alabama,Coosa County,10715,0.4961269248716752,650.93,16.4610634,32.93690146,-86.24847739,0.0,,,1973,42423,16.32,10.1301,20.4,38.6,29.5,11.6,44,31,20,4,0.0,20.399965623,20.8
1039,1,Alabama,Covington County,36986,0.5161412426323474,1030.46,35.89270811,31.2477854,-86.45050893,0.003974476829070459,0.0003244470880873844,0.0003514843454279998,7239,40203,30.71,18.4141,17.1,35.4,32.5,14.9,47,28,20,4,0.4333531606553831,19.249451541,15.3
1041,1,Alabama,Crenshaw County,13824,0.5172164351851852,608.84,22.705472699999998,31.72941803,-86.31593104,0.0046296296296296285,0.0003616898148148148,0.0003616898148148148,2661,39057,29.44,11.2164,21.6,38.8,24.0,15.6,50,29,19,4,0.0,18.646929565,18.2
1043,1,Alabama,Cullman County,83442,0.5057045612521273,734.84,113.5512493,34.13020303,-86.86888037,0.0017377339948706884,0.00011984372378418544,0.00014381246854102252,11925,45796,30.96,51.7432,18.2,35.6,32.4,13.7,50,26,18,4,0.5926751516023105,17.901071221,19.3
1045,1,Alabama,Dale County,48956,0.50929405997222,561.15,87.24227034,31.43037123,-85.61095742,0.0013890023694746302,0.00012255903260070266,0.00012255903260070266,7743,45309,50.86,41.2528,14.2,32.7,36.1,17.0,55,26,16,3,0.8839774491380015,20.057394929,15.8
1047,1,Alabama,Dallas County,38310,0.5383711824588879,978.7,39.14376213,32.32688101,-87.10866709999998,0.0038893239363090577,0.0006786739754633255,0.0006003654398329418,11841,34035,29.35,20.8041,19.3,35.2,30.4,15.1,52,28,16,4,0.44306969459671103,24.088991007,15.9
1049,1,Alabama,DeKalb County,71385,0.5037052602087273,777.09,91.86194649,34.45946862,-85.80782906,0.0015969741542340829,0.0001681025425509561,0.0001681025425509561,14975,39491,24.84,40.7417,25.9,33.3,28.1,12.7,53,27,17,3,0.0,21.028270793,12.8
1051,1,Alabama,Elmore County,81887,0.5165899349103033,618.49,132.39826029999998,32.59785413,-86.14415284,0.0011601353084128127,0.00014654340737846056,0.00013433145676358885,8559,60367,20.86,55.6484,13.6,32.8,29.0,24.5,53,28,15,2,0.05451414754478733,17.45250185,15.8
1053,1,Alabama,Escambia County,36748,0.4930880592141069,945.08,38.88348076,31.1256789,-87.15918694,0.002231413954500925,0.0004353978447806683,0.0003809731141830848,8022,38418,31.4,17.6451,18.5,44.5,24.4,12.7,51,28,18,4,0.0,22.412584583,18.8
1055,1,Alabama,Etowah County,102501,0.5155852138027922,534.99,191.5942354,34.04567266,-86.04051873,0.0054438493282992365,0.0008975522190027414,0.0008292602023394893,17509,44903,27.23,89.4334,15.5,32.9,33.9,17.7,51,28,19,4,0.4501224378298748,20.147398601,15.7
1057,1,Alabama,Fayette County,16433,0.5117750867157549,627.66,26.18137208,33.72076938,-87.73886638,0.01010162477940729,0.0004868252905738453,0.0004868252905738453,3801,39254,20.01,13.5535,17.6,41.5,27.9,12.9,47,27,21,4,0.0,18.001593256,23.3
1059,1,Alabama,Franklin County,31363,0.4954883142556515,633.82,49.48250292,34.44235334,-87.84289505,0.0036029716544973382,0.000382616458884673,0.00035073175397761695,5939,39388,28.09,22.4496,23.2,36.8,27.1,12.9,53,26,18,4,0.0,19.250583044,14.8
1061,1,Alabama,Geneva County,26314,0.5118188036786502,574.41,45.8104838,31.09389027,-85.83572839,0.005548377289655696,0.00026601808923006764,0.0002280155050543437,5537,37823,19.62,22.3708,20.9,37.2,30.8,11.1,47,28,20,4,0.0,20.003603276,16.9
1063,1,Alabama,Greene County,8233,0.5278756224948379,647.11,12.72272102,32.85504247,-87.95684022,0.011053079072027207,0.0004858496295396575,0.0004858496295396575,2459,28524,27.99,7.8982,24.1,36.8,29.0,10.1,48,29,19,5,0.0,24.632818706,14.5
1065,1,Alabama,Hale County,14726,0.5241070215944588,643.94,22.86859024,32.76039258,-87.63284988,0.0013581420616596495,0.0003395355154149124,0.0003395355154149124,3705,34724,18.81,12.1828,16.4,42.6,26.9,14.1,50,29,18,4,0.0,22.077291339,17.8
1067,1,Alabama,Henry County,17209,0.5176942297634959,561.75,30.63462394,31.51148016,-85.24267944,0.0,,,3037,46027,19.14,16.3471,19.8,33.5,28.7,18.0,47,27,21,4,0.0,18.429845441,16.6
1069,1,Alabama,Houston County,104722,0.5198143656538263,579.82,180.61122419999998,31.15197924,-85.29939599,0.0050896659727659894,0.00068753461545807,0.00068753461545807,17032,47993,41.68,82.4118,14.3,31.6,33.0,21.0,53,27,18,4,0.04818471763335306,19.249782785,13.5
1071,1,Alabama,Jackson County,51736,0.5092392144734808,1077.87,47.99836715,34.78144169,-85.99750489,0.0017589299520643267,0.00021261790629349003,0.00019328900572135457,10046,41929,25.33,23.4286,17.5,40.8,27.5,14.2,49,29,20,4,0.5016622854492037,19.958920884,16.5
1073,1,Alabama,Jefferson County,659300,0.5273911724556347,1111.28,593.2798215,33.55554728,-86.89506300000002,0.005375398149552556,0.0006400728044896102,0.0006400728044896102,103604,55013,63.3,278.5617,10.3,26.8,30.6,32.4,53,27,14,4,0.6486273320188078,17.622045263,12.9
1075,1,Alabama,Lamar County,13844,0.5111961860733892,604.85,22.88831942,33.77995024,-88.09668032,0.0,,,2374,40936,21.25,12.2923,17.6,39.9,30.0,12.5,45,28,21,5,0.0,20.430552004,18.8
1077,1,Alabama,Lauderdale County,92387,0.5202030588719192,667.7,138.36603259999998,34.90171875,-87.65624729,0.003474514812690097,0.00042213731369132015,0.0003896652126381417,12645,48707,26.65,68.089,12.6,36.0,27.5,23.9,50,27,18,4,0.7388052431619168,16.6560043,13.8
1079,1,Alabama,Lawrence County,32957,0.5130928179142519,690.68,47.71674292,34.52041498,-87.31069453,0.00130473040628698,0.00021239797311648514,0.0001820554055284158,6297,43909,16.98,22.4055,21.0,41.5,25.8,11.7,48,30,18,3,0.0,20.18764616,19.3
1081,1,Alabama,Lee County,163941,0.508121824314845,607.54,269.84396089999996,32.60154883,-85.35132246,0.0033487657144948488,9.1496330997127e-05,0.00012199510799616937,30075,48937,37.75,115.8261,9.5,24.1,32.3,34.1,62,23,11,2,1.7838734666739864,17.560140407,9.0
1083,1,Alabama,Limestone County,96174,0.4992825503774409,559.94,171.7576883,34.81185586,-86.98310072,0.000738245263792709,0.00018716077110237696,0.00018716077110237696,10633,64863,35.34,65.2373,15.7,30.3,28.5,25.5,53,29,15,2,1.2759165678873707,18.173356594,13.8
1085,1,Alabama,Lowndes County,9974,0.5317826348506116,715.91,13.93191882,32.1597283,-86.65158371,0.0,,,2474,33973,40.38,7.2970000000000015,22.5,38.6,24.8,14.1,49,29,18,4,0.0,22.615911188,13.9
1087,1,Alabama,Macon County,18439,0.5453658007484137,608.89,30.28297394,32.38759944,-85.69267724,0.0,0.0,0.0,5031,32495,22.95,16.8881,18.3,30.1,30.9,20.7,54,25,17,4,1.5974835945550192,21.414696395,23.0
1089,1,Alabama,Madison County,366519,0.5114195989839544,801.59,457.23998550000016,34.76327133,-86.55069633,0.0030776030710549795,0.00032194783899333997,0.0003110343529257692,42667,63755,60.71,204.9327,8.9,20.8,28.6,41.7,52,29,14,3,0.4834619760503549,16.820172701,13.5
1091,1,Alabama,Marengo County,19066,0.5314696318053079,976.88,19.51723856,32.24767634,-87.78796182,0.00241267177174027,0.0002097975453687192,0.00026224693171089897,4499,37733,33.65,10.6246,16.2,39.8,28.6,15.4,50,28,18,4,0.0,21.356000347,17.6
1093,1,Alabama,Marion County,29763,0.5065685582770554,742.29,40.09618882,34.13697363,-87.88704173,0.002385512213150556,0.00026879010852400633,0.00026879010852400633,5844,37887,26.84,20.1256,20.3,34.8,31.7,13.1,46,28,21,4,0.0,19.060203607,20.4
1095,1,Alabama,Marshall County,96109,0.5057486811849047,565.84,169.8519016,34.36975964,-86.30486727,0.0021225899759647897,0.0003849795544642022,0.00037457470164084533,17341,46233,32.18,72.1335,19.1,31.1,30.5,19.2,53,26,18,3,0.2316744529648628,21.017853481,11.8
1097,1,Alabama,Mobile County,413757,0.5236890252007821,1229.44,336.5410268,30.78472347,-88.20842409,0.002965508740637621,0.0006525569355926305,0.0005945518746510633,84539,43598,43.13,150.2212,13.8,33.5,29.8,22.9,54,26,15,4,0.4780873797905534,19.369969149,14.0
1099,1,Alabama,Monroe County,21067,0.5250866283761333,1025.68,20.5395445,31.56729412,-87.36995001,0.002088574547871078,0.00042720843024635687,0.00037974082688565055,4560,39556,28.74,11.1682,16.3,46.1,23.5,14.1,50,27,18,4,0.0,23.257538963,18.4
1101,1,Alabama,Montgomery County,225763,0.5281689205051315,784.25,287.8712145,32.2206831,-86.20969272,0.003614409801428932,0.00035878332587713663,0.00038093044475844137,43567,49640,55.67,134.0924,14.4,25.5,28.0,32.1,58,26,14,4,0.7392353928677419,19.68315291,13.9
1103,1,Alabama,Morgan County,119089,0.5072424825130785,579.34,205.5597749,34.45500589,-86.85475946,0.0009152818480296248,0.00042825113990376944,0.00036947157168168345,15419,52797,41.81,90.2285,16.7,29.6,32.0,21.7,52,29,17,3,0.0,18.855706149,12.7
1105,1,Alabama,Perry County,9140,0.5316192560175055,719.66,12.70044188,32.64048341,-87.29770589,0.0,,,2943,26814,19.34,6.6392,21.9,39.4,22.9,15.7,53,24,18,4,0.8124726477024069,26.003088568,15.8
1107,1,Alabama,Pickens County,19938,0.5010532651218779,881.41,22.62057385,33.28094866,-88.08818103,0.00255792958170328,,,4177,37586,19.25,10.9177,19.4,36.7,30.4,13.5,47,29,18,4,0.0,21.199123041,15.0
1109,1,Alabama,Pike County,33338,0.517127602135701,672.09,49.60347572,31.80396383,-85.9408295,0.0012598236246925431,0.0002999580058791769,0.0002699622052912592,7315,37259,39.19,24.1426,19.0,33.3,24.2,23.6,59,23,14,4,4.713180154778331,20.604656176,12.3
1111,1,Alabama,Randolph County,22725,0.5134873487348734,580.55,39.14391525,33.29526734,-85.45708831,0.0006160616061606162,0.000132013201320132,0.000132013201320132,4375,40546,18.95,20.8578,21.2,36.3,27.5,14.9,47,27,19,4,1.9165676567656769,18.998357528,16.5
1113,1,Alabama,Russell County,57781,0.5198248559214966,641.14,90.12228218,32.28725256,-85.18415324,0.0006057354493691697,0.00017306727124833423,0.00017306727124833423,12384,39104,25.3,43.44600000000001,16.7,32.3,34.5,16.5,55,26,14,3,0.26700818608193005,21.791319835,19.0
1115,1,Alabama,St. Clair County,88690,0.5035855226068328,631.9,140.3544865,33.71902176,-86.31029372,0.0004510091329349419,6.765136994024129e-05,6.765136994024129e-05,10432,57284,20.22,58.8368,15.2,36.0,32.3,16.5,53,29,16,3,0.0,18.335301284,13.8
1117,1,Alabama,Shelby County,215707,0.5166128127506293,784.93,274.81049269999994,33.26879845,-86.66232561,0.0010662611783576797,0.00014834938133672062,0.00014834938133672062,16916,75663,48.84,112.6062,7.8,20.3,29.7,42.1,55,28,14,2,0.12010736786474245,15.561157468,10.5
1119,1,Alabama,Sumter County,12691,0.5428256244582775,903.89,14.04042527,32.59117397,-88.19916205,0.0026002679063903554,0.0005515719801434088,0.00047277598298006463,4076,27859,25.16,7.6436,15.8,37.8,24.6,21.8,52,27,16,4,2.8428019856591287,22.491914972,20.5
1121,1,Alabama,Talladega County,79828,0.5167109284962671,736.78,108.3471321,33.37823223,-86.16886178,0.0021546324597885454,0.00017537706068046299,0.00017537706068046299,14825,41630,35.25,51.4536,19.0,34.9,31.8,14.3,51,29,18,3,0.15643633812697302,23.159862261,16.3
1123,1,Alabama,Tallapoosa County,40497,0.5152233498777687,716.52,56.51900854,32.86698258,-85.79833053,0.0023211595920685484,0.0003703978072449811,0.00034570462009531565,7839,42205,29.19,31.4297,19.5,32.9,29.2,18.3,46,29,20,4,0.38392967380299775,18.180067185,15.9
1125,1,Alabama,Tuscaloosa County,208911,0.5185078813466022,1321.76,158.0551689,33.28726072,-87.52556818,0.0029055435089583607,0.00038772491635193936,0.0004451656447003748,33330,52557,43.85,70.3638,11.6,29.9,28.3,30.3,60,24,12,3,2.0163227403056805,17.872632402,11.9
1127,1,Alabama,Walker County,63711,0.5127999874432987,791.19,80.52553748,33.80270512,-87.30027177,0.0027781701746951077,0.00017265464362511968,0.0001883505203183124,11231,45434,31.92,39.4861,19.1,37.1,32.2,11.6,50,28,19,4,0.5626343959441855,22.68098456,14.2
1129,1,Alabama,Washington County,16378,0.5081817071681524,1080.21,15.16186667,31.4092794,-88.20689944,0.0012211503236048355,0.00018317254854072538,0.00018317254854072538,2846,44424,48.03,7.9364,19.6,43.2,26.1,11.1,51,28,18,3,0.0,20.790092076,16.6
1131,1,Alabama,Wilcox County,10627,0.5242307330384869,888.5,11.96060777,31.98773215,-87.30891118,0.0,0.0003763997365201845,0.0003763997365201845,3504,25385,35.01,6.5053,23.1,40.3,24.1,12.5,51,28,18,4,0.0,22.066630151,19.9
1133,1,Alabama,Winston County,23660,0.5073964497041421,612.98,38.59832295,34.15030532,-87.37325922,0.0024936601859678787,0.000169061707523246,0.000169061707523246,4338,41156,27.96,22.4265,21.9,37.4,27.3,13.5,44,30,21,4,0.0,19.647968099,19.5
2013,2,Alaska,Aleutians East Borough,3515,0.32460881934566144,6981.94,0.5034417370000001,55.32222414,-161.9722021,0.0,,,544,70081,58.86,0.1077,13.6,40.2,33.4,12.7,46,44,9,0,0.0,16.646810923,12.6
2016,2,Alaska,Aleutians West Census Area,5723,0.3447492573824917,4390.28,1.3035615040000001,52.72541116,-110.4086433,0.0,,,550,82633,61.42,0.4471,11.2,40.5,31.9,16.4,48,42,9,0,0.0,15.142823345,9.8
2020,2,Alaska,Anchorage Municipality,291538,0.4910303288079084,1704.68,171.0221273,61.14998174,-149.14269860000005,0.002421639717635437,,,27075,82113,68.66,69.3596,6.2,23.8,34.7,35.3,60,30,11,2,0.5009158325844315,15.041432026,7.8
2050,2,Alaska,Bethel Census Area,18216,0.4852876592007026,40570.0,0.449001725,60.90980451,-159.8561831,0.002031181379007466,,,5869,44304,34.66,0.1488,18.6,45.2,23.9,12.3,67,24,9,1,0.0,30.418017102,6.1
2060,2,Alaska,Bristol Bay Borough,877,0.4663625997719498,503.84,1.7406319469999998,58.74513976,-156.701064,0.0,,,96,77257,146.45,1.9371,5.6,34.9,37.2,22.3,48,40,14,1,0.0,18.137643625,14.9
2068,2,Alaska,Denali Borough,2059,0.4434191355026712,12751.41,0.161472339,63.67264044,-150.0076108,0.0,,,135,75477,106.3,0.1383,1.6,26.1,28.8,43.5,46,38,13,0,0.0,17.574687699,4.9
2070,2,Alaska,Dillingham Census Area,5000,0.4964,18568.78,0.26926917100000003,59.79603738,-158.23819419999995,0.0,,,1091,54524,49.94,0.1321,12.7,39.2,28.8,19.3,59,28,10,2,0.0,26.930817177,10.3
2090,2,Alaska,Fairbanks North Star Borough,98971,0.461357367309616,7338.21,13.48707655,64.80726247,-146.5692662,0.002182457487546857,,,8104,74268,56.74,6.0369,5.5,22.3,39.7,32.6,61,26,11,2,0.7389033151125077,15.853578868,6.2
2100,2,Alaska,Haines Borough,2474,0.5060630557801131,2318.6,1.067023204,59.09893571,-135.4679843,0.0,,,259,58943,39.3,0.7237,3.0,30.0,29.5,37.4,40,36,22,2,0.0,16.117828598,7.4
2105,2,Alaska,Hoonah-Angoon Census Area,2151,0.4728033472803347,7524.92,0.285850215,58.29307365,-135.64244240000002,0.0,,,370,51188,39.03,0.2352,8.5,35.6,32.5,23.4,42,36,21,2,0.0,20.073737701,14.4
2110,2,Alaska,Juneau City and Borough,32113,0.4920125805748451,2701.93,11.88520798,58.45031811,-134.200436,0.002273222682402765,,,2299,79173,71.09,5.1041,3.9,20.4,36.2,39.5,51,33,12,2,0.6076666770466789,16.584870857,6.5
2122,2,Alaska,Kenai Peninsula Borough,58533,0.47913143013342896,16075.33,3.6411694189999997,60.24429722,-151.53888840000005,0.0036560572668409273,,,7103,65439,48.24,1.9496,7.2,32.2,37.3,23.3,49,32,17,2,0.14535390292655426,17.338153075,8.4
2130,2,Alaska,Ketchikan Gateway Borough,13918,0.4897255352780572,4858.41,2.864723232,55.57445008,-130.975561,0.0038080183934473344,,,1244,68309,58.01,1.3202,7.3,29.9,38.3,24.5,51,32,13,2,0.0,16.935100114,9.2
2150,2,Alaska,Kodiak Island Borough,13345,0.4682652678905958,6549.58,2.037535231,57.65529415,-153.7493579,0.00044960659423004876,,,1073,74109,52.39,0.8329,10.1,31.3,32.6,26.0,58,29,11,2,0.0,15.438973242,8.0
2158,2,Alaska,Kusilvak Census Area,8303,0.4732024569432735,19673.0,8303.0,62.15429159999999,-163.39678830000003,0.0,,,2905,32728,17.69,0.1138,22.3,53.6,19.3,4.8,72,20,7,2,0.0,41.000948612,4.7
2164,2,Alaska,Lake and Peninsula Borough,1587,0.4877126654064272,23652.01,0.06709789099999999,58.62403337,-156.21405890000003,0.0,,,288,49403,64.09,0.0639,14.5,41.9,27.9,15.8,59,28,10,2,0.0,28.301188773,9.5
2170,2,Alaska,Matanuska-Susitna Borough,107610,0.48083821206207594,24607.9,4.3729859110000024,62.31305045,-149.5741743,0.0006876684323018307,,,10937,74649,21.91,1.7064,7.6,32.2,39.0,21.2,58,30,11,2,0.004832264659418268,17.50057946,8.7
2180,2,Alaska,Nome Census Area,10008,0.4737210231814548,22961.76,0.43585509100000003,64.90320724,-164.0353804,0.0034972022382094323,,,2168,55318,39.97,0.1786,15.9,42.9,26.6,14.6,66,25,9,1,0.0,31.530572867,7.4
2185,2,Alaska,North Slope Borough,9872,0.37753241491085904,88695.41,0.111302265,69.31479216,-153.4836093,0.0014181523500810373,,,1094,89276,1068.65,0.0297,10.2,43.0,30.2,16.6,57,35,9,0,0.3358995137763371,23.85108657,7.6
2188,2,Alaska,Northwest Arctic Borough,7671,0.4601746838743319,35572.58,0.21564362199999998,67.04919196,-159.7503946,0.0,,,1604,59337,90.09,0.0772,18.1,47.3,22.8,11.7,66,23,8,1,0.0,30.516917851,10.8
2195,2,Alaska,Petersburg Borough,3221,0.4722135982614095,3281.98,0.981419753,57.13978948,-132.9540995,0.008382489909965849,,,232,66075,52.9,0.5183,10.3,31.9,30.3,27.6,47,33,16,2,0.0,15.18753835,8.2
2198,2,Alaska,Prince of Wales-Hyder Census Area,6422,0.4523512924322641,3922.87,1.637066739,55.76261984,-133.0511621,0.0,,,1057,49356,33.87,0.8787,9.8,37.3,35.3,17.6,48,33,16,1,0.0,22.27222789,13.6
2220,2,Alaska,Sitka City and Borough,8647,0.4911530010408234,2870.34,3.0125351,57.24124555,-135.3206587,0.0058979993061177285,,,656,71825,50.76,1.4761,6.0,28.3,33.0,32.6,52,30,15,3,0.0,16.250454989,7.9
2230,2,Alaska,Skagway Municipality,1148,0.4799651567944251,452.33,2.5379700659999997,59.56149996,-135.3337748,0.0,,,49,74635,89.86,1.5409,6.3,23.4,36.6,33.7,47,37,14,2,0.0,15.58438516,6.2
2240,2,Alaska,Southeast Fairbanks Census Area,6918,0.4485400404741255,24768.81,0.279302881,63.87692095,-143.2127643,0.0,,,918,63527,92.78,0.1577,9.8,32.6,38.5,19.1,53,32,14,2,0.0,19.61017034,9.5
2261,2,Alaska,Valdez-Cordova Census Area,9164,0.4758838934962898,34239.88,0.267641125,61.47502768,-144.7126799,0.004801396769969445,,,880,68528,250.68,0.18100000000000002,4.0,32.7,32.7,30.6,50,36,13,2,0.0,16.590622719,11.2
2275,2,Alaska,Wrangell City and Borough,2503,0.4822213343987216,2541.48,0.9848592159999999,56.3202004,-132.05837309999998,0.008789452656811825,,,287,57832,37.89,0.5721,11.7,37.6,30.0,20.7,43,33,21,3,0.0,17.384484445,13.8
2282,2,Alaska,Yakutat City and Borough,604,0.445364238410596,7649.46,0.078959822,59.8909808,-140.36014509999998,0.0,,,79,59523,41.25,0.06,8.2,38.4,33.5,20.0,49,32,14,2,0.0,19.879946738,7.8
2290,2,Alaska,Yukon-Koyukuk Census Area,5327,0.470245917026469,145504.79,0.036610479,65.50815459,-151.3907387,0.0,,,1259,38912,50.51,0.0281,14.3,40.3,32.0,13.4,55,29,14,2,0.0,29.69143357,9.1
4001,4,Arizona,Apache County,71818,0.5083405274443733,11197.52,6.413741614,35.39465006,-109.4892383,0.0005987356930017545,0.0004455707482803754,0.00040379849062909017,26435,33652,36.62,2.9412,20.4,33.1,34.8,11.7,57,26,14,2,0.2223398033919073,21.513107022,16.8
4003,4,Arizona,Cochise County,126770,0.4921511398595882,6165.69,20.56055364,31.87934684,-109.7516088,0.001262128263784807,0.00014987773132444585,0.00017354263627041098,18273,49164,34.88,9.9467,12.8,23.5,40.7,23.0,50,26,20,4,0.3334385106886487,14.99584566,10.5
4005,4,Arizona,Coconino County,142854,0.5059291304408697,18618.89,7.672530425,35.83883429,-111.7707178,0.0023870525151553326,0.0004480098562168368,0.00042700939420667257,20964,60187,48.29,3.5899,10.4,21.4,32.6,35.6,61,25,12,2,2.301412631077884,15.990186028,7.5
4007,4,Arizona,Gila County,53889,0.5055762771623151,4757.93,11.32614393,33.80190085,-110.8132779,0.0009092764757186069,0.00012989663938837238,0.00016700996492790738,10804,43585,37.18,7.0894,14.7,28.6,38.2,18.5,41,28,27,5,0.0,17.628104734,15.3
4009,4,Arizona,Graham County,38072,0.4672462702248372,4622.6,8.23605763,32.93166885,-109.8882178,0.0012870350914057575,0.000236394200462282,0.000236394200462282,7118,50157,28.99,2.9349,14.4,29.9,40.5,15.3,61,23,13,3,1.4364887581424668,17.53449299,9.9
4011,4,Arizona,Greenlee County,9483,0.4863439839713171,1843.13,5.145052167,33.21498827,-109.2405279,0.0,,,985,65818,186.36,2.4252,11.0,36.2,40.9,11.9,58,27,14,3,0.0,14.269949853,11.7
4012,4,Arizona,La Paz County,21098,0.4871551805858375,4499.63,4.68882997,33.72854224,-113.9810029,0.0011375485828040571,0.00028438714570101434,0.00028438714570101434,4921,37350,29.1,3.6205,22.7,33.0,32.0,12.4,36,22,37,6,0.0,15.521010202,14.1
4013,4,Arizona,Maricopa County,4410824,0.5053717854078966,9200.14,479.4300956,33.34835867,-112.4918154,0.00177449837037252,0.00027001757494744745,0.0002790861752815347,535183,65234,51.9,191.6095,12.6,22.6,32.8,32.0,56,25,14,4,0.8869141004039155,13.686398251,8.9
4015,4,Arizona,Mohave County,209550,0.4942543545693152,13311.08,15.74252427,35.70471703,-113.7577902,0.002443330947267955,0.00037222619899785256,0.000381770460510618,34411,45129,24.59,8.6596,14.7,34.8,37.6,12.9,42,27,26,5,0.18280124075399665,19.352843037,13.6
4017,4,Arizona,Navajo County,110445,0.4994703245959528,9950.42,11.09953148,35.3997715,-110.3218983,0.0010231336864502693,0.00022635701027660826,0.00021730272986554398,30876,40650,32.52,5.8444,17.2,30.1,36.9,15.8,54,26,17,3,0.2368056498709765,20.611978362,15.4
4019,4,Arizona,Pima County,1039073,0.507776643219485,9187.04,113.1020437,32.0971334,-111.7890033,0.002338622984140672,0.00042730395265780174,0.00039265768622608814,164927,53395,39.24,50.3698,11.7,22.5,34.0,31.9,52,27,18,4,0.6352585429512652,14.916461188,8.4
4021,4,Arizona,Pinal County,447138,0.4790937026153,5365.61,83.33404776,32.90525627,-111.3449483,0.0004383434197048786,8.498494871829278e-05,8.722139473719523e-05,54399,58848,16.53,33.0175,14.6,29.7,36.8,19.0,57,24,17,3,0.1188805245807782,16.274473498,12.8
4023,4,Arizona,Santa Cruz County,46511,0.5168239771236912,1236.92,37.60227015,31.52508998,-110.8479088,0.0005375072563479607,8.60011610156737e-05,8.60011610156737e-05,11287,40545,36.52,14.8627,24.4,27.2,27.4,21.0,55,26,15,3,0.0,14.571449262,8.0
4025,4,Arizona,Yavapai County,231993,0.5115326755548659,8123.5,28.55825691,34.59933926,-112.5538588,0.001310384365045497,0.0002413865935610126,0.0002413865935610126,30060,48758,28.85,14.5743,9.7,25.7,39.4,25.2,40,27,27,6,0.4243317686309501,17.065330071,10.7
4027,4,Arizona,Yuma County,212128,0.4847167747774928,5513.99,38.47087137,32.76895712,-113.90666740000002,0.001909224619097903,0.0002121360687886559,0.0001979936642027455,39648,44116,37.89,16.9687,27.9,25.9,31.4,14.8,59,23,17,3,0.3489968321013728,13.32703585,14.1
5001,5,Arkansas,Arkansas County,17769,0.5164049749563847,988.77,17.97081222,34.29145151,-91.37277296,0.006246834374472396,0.0007878890202037256,0.0007316112330463166,3120,43887,56.77,9.5674,17.0,38.3,29.2,15.5,48,29,18,4,0.0,20.0832304,19.3
5003,5,Arkansas,Ashley County,20046,0.5125710865010475,925.35,21.66315448,33.19153461,-91.7698471,0.0016462137084705178,0.000349196847251322,0.000299311583358276,3876,41127,44.21,10.9915,17.7,39.9,29.2,13.2,49,27,19,4,0.0,20.452066927,15.2
5005,5,Arkansas,Baxter County,41619,0.5171436122924625,554.28,75.08659883,36.28784385,-92.33782872,0.005406184675268507,0.00040846728657584284,0.00040846728657584284,6216,39686,27.45,41.46100000000001,11.8,35.0,34.8,18.3,37,26,30,7,0.30346716643840554,16.242815884,17.0
5007,5,Arkansas,Benton County,272608,0.5026484916069961,847.36,321.7145015000001,36.33644656,-94.25680817,0.0009647552529639627,0.0002237645263528583,0.00020542317173377161,23290,68978,51.14,128.0282,11.9,29.1,26.5,32.4,58,25,14,4,0.36544048597253204,16.513156719,9.0
5009,5,Arkansas,Boone County,37480,0.5079242262540021,590.23,63.50066923,36.3084504,-93.09374925,0.003014941302027748,0.0007470651013874066,0.0006403415154749199,5472,44482,30.84,28.8396,13.0,33.8,37.2,16.0,49,27,19,4,0.4597652081109925,19.902994421,14.5
5011,5,Arkansas,Bradley County,10897,0.5130769936679821,649.23,16.78449856,33.46755808,-92.15980837,0.0029365880517573644,0.00036707350646967055,0.00036707350646967055,2329,37729,30.17,8.9167,18.0,41.6,25.1,15.2,51,27,19,5,0.0,21.76763047,16.1
5013,5,Arkansas,Calhoun County,5277,0.4955467121470533,628.58,8.395112794,33.55598792,-92.49974403,0.0,,,800,44969,66.3,4.6406,17.3,43.6,27.0,12.1,44,30,20,5,1.837028614743225,20.624855656,17.2
5015,5,Arkansas,Carroll County,28223,0.5022853700882259,630.09,44.79201384,36.34038560000001,-93.54270261,0.0014172837756439786,0.0002834567551287957,0.0002834567551287957,4499,45023,28.27,21.8604,14.2,34.6,30.8,20.4,45,28,22,4,0.0,18.372733646,8.5
5017,5,Arkansas,Chicot County,10438,0.4949223989269975,644.3,16.2005277,33.26458973,-91.29539209,0.002299291051925656,0.00038321517532094267,0.00038321517532094267,3039,31787,22.55,8.4309,19.3,39.2,26.7,14.7,48,27,18,6,0.0,23.103409519,9.7
5019,5,Arkansas,Clark County,22061,0.5262227460223925,866.07,25.47253686,34.04613432,-93.17484713,0.0011332215221431484,0.00018131544354290375,0.00018131544354290375,3838,45408,32.79,12.1722,10.8,30.5,31.0,27.6,56,24,15,4,2.3904628076696435,19.33947371,14.8
5021,5,Arkansas,Clay County,14847,0.5113490940930828,639.47,23.21766463,36.36826212,-90.4148172,0.0016164881794301876,0.000269414696571698,0.000269414696571698,3035,37687,20.24,12.526,19.3,41.2,27.8,11.6,47,28,22,5,0.0,20.333190979,15.4
5023,5,Arkansas,Cleburne County,24965,0.5082315241337872,553.69,45.08840687,35.53864922,-92.02640019,0.001001401962747847,0.00016022431403965552,0.00016022431403965552,3573,44902,35.28,29.0776,15.3,40.7,29.1,14.9,42,27,24,6,0.0,17.409398052,11.7
5025,5,Arkansas,Cleveland County,8018,0.5038663008231479,597.78,13.41296129,33.89723187,-92.18537045,0.0,,,1232,47600,20.65,6.8671,11.4,47.2,25.2,16.2,51,26,20,4,0.0,19.038559786,17.1
5027,5,Arkansas,Columbia County,23537,0.5176955431873221,766.05,30.72514849,33.21230701,-93.22642793,0.0015295067340782595,0.00029740408718188386,0.00025491778901304334,4799,40909,34.68,15.2209,15.0,39.9,24.5,20.6,53,26,16,4,1.6469388622169352,20.476424943,16.3
5029,5,Arkansas,Conway County,20891,0.5088794217605668,552.25,37.82888185,35.26205537,-92.70506566,0.0011966875688095352,0.00019147001100952563,0.00019147001100952563,3693,44565,46.04,17.8361,14.1,43.4,26.5,16.0,51,28,18,4,0.8843042458474941,19.000933819,18.5
5031,5,Arkansas,Craighead County,108558,0.514268870097091,707.21,153.5017887,35.83018283,-90.63235729,0.005655962711177435,0.0006908749240037582,0.0006816632583503749,18768,45615,38.14,65.4049,10.9,34.1,28.7,26.3,59,23,14,4,1.055251570588994,20.762920838,13.9
5033,5,Arkansas,Crawford County,63406,0.5070182632558433,593.09,106.9078892,35.58928601,-94.2446814,0.0006150837460177272,0.00014194240292716778,0.00012617102482414917,10027,47363,25.09,45.4855,14.8,37.4,32.4,15.3,54,28,16,3,0.0,19.004177141,15.0
5035,5,Arkansas,Crittenden County,48342,0.5239956973232386,609.76,79.28037261,35.21247318,-90.30839406,0.0,4.137189193661826e-05,4.137189193661826e-05,9056,42606,30.23,35.7879,17.6,35.0,29.4,18.0,57,26,14,2,0.2512101278391461,23.311338002,19.6
5037,5,Arkansas,Cross County,16676,0.5176301271288078,616.38,27.05473896,35.29631396,-90.77185818,0.000899496282082034,0.00017989925641640682,0.00017989925641640682,2940,41214,25.94,12.9806,17.2,41.5,25.8,15.4,50,27,19,4,0.0,20.48800941,16.9
5039,5,Arkansas,Dallas County,7182,0.5058479532163743,667.39,10.76132396,33.97042763,-92.65167437,0.003341687552213868,0.0005569479253689781,0.0005569479253689781,1442,37259,25.88,6.47,16.4,43.4,26.6,13.7,48,29,20,5,0.0,19.211906124,7.7
5041,5,Arkansas,Desha County,11512,0.5277102154273802,768.15,14.98665625,33.83011025,-91.25500948,0.004343293954134815,0.0006949270326615705,0.0006949270326615705,2780,36132,41.9,8.2067,21.2,44.0,22.4,12.4,53,28,18,4,0.0,24.25184846,13.8
5043,5,Arkansas,Drew County,18328,0.5114033173286774,828.36,22.12564585,33.59035001,-91.71777921,0.002673505019642077,0.0002728066346573549,0.0002728066346573549,3391,42494,31.06,10.4109,14.9,35.4,29.1,20.6,53,26,16,4,1.5772588389349629,20.831699776,19.4
5045,5,Arkansas,Faulkner County,124806,0.5113055462077144,647.88,192.63752549999998,35.14719007,-92.33717519,0.0020832331778920885,0.00020832331778920882,0.0002003108824896239,18571,53882,30.09,77.9805,8.7,30.5,30.7,30.0,63,24,12,2,1.0153999006458023,20.535015324,9.6
5047,5,Arkansas,Franklin County,17810,0.4998315553060079,608.86,29.25138784,35.51202821,-93.89299569,0.001403705783267827,0.00022459292532285235,0.00022459292532285235,3202,43696,26.99,13.2806,17.4,40.1,30.7,11.8,51,27,18,4,0.0,21.150183953,13.1
5049,5,Arkansas,Fulton County,12269,0.5092509576982639,618.19,19.84664909,36.38177105,-91.81729127,0.001956149645447877,0.00032602494090797947,0.00032602494090797947,2481,35630,15.47,11.0694,15.4,37.2,35.6,11.8,42,29,25,6,0.0,20.012115075,13.9
5051,5,Arkansas,Garland County,99154,0.5193335619339613,677.78,146.29230719999995,34.57692074,-93.14921604,0.004256005809145371,0.0004538394820178712,0.0004840954474857293,19844,43610,31.05,75.28399999999998,11.6,31.5,36.7,20.2,45,27,22,6,0.20781814147689454,19.415844716,15.1
5053,5,Arkansas,Grant County,18188,0.5059929623927865,631.81,28.78713537,34.29017991,-92.42320562,0.0,,,2353,52050,21.59,12.7348,8.5,44.2,29.0,18.3,52,28,18,3,0.0,18.222245823,16.6
5055,5,Arkansas,Greene County,45325,0.5082404853833425,577.7,78.45767699,36.11735460000001,-90.55832668,0.0027357970215113074,0.00015444015444015445,0.00017650303364589082,7361,46512,30.09,33.1764,12.7,44.2,27.2,15.9,53,28,17,4,0.04611141753998897,19.622216775,14.6
5057,5,Arkansas,Hempstead County,21741,0.5178694632261626,727.52,29.88371454,33.73325583,-93.66935133,0.0035876914585345654,0.0004139643990616807,0.00036796835472149397,4424,38682,39.84,14.4862,19.0,36.9,28.9,15.1,53,26,18,4,0.7396163929902029,22.176658181,18.4
5059,5,Arkansas,Hot Spring County,33701,0.4764843773181805,615.2,54.78055917,34.31709259,-92.95396325,0.0021364351206195663,0.0002077089700602356,0.00017803626005163053,5844,47205,25.76,23.5078,14.6,39.6,31.1,14.7,49,27,18,4,0.3175573425120916,20.333526847,17.8
5061,5,Arkansas,Howard County,13341,0.5190015740948954,588.55,22.66757285,34.09007427,-93.9934871,0.0014991379956525,0.00044974139869575,0.00044974139869575,2271,40199,44.63,10.6601,17.1,37.3,30.8,14.7,52,27,17,4,0.0,21.855604946,12.9
5063,5,Arkansas,Independence County,37678,0.5124210414565529,763.95,49.31998167,35.74242707,-91.57001641,0.005573544243325017,0.00029194755560273903,0.00031848824247571525,5302,45596,44.83,21.7174,14.2,35.8,31.0,18.9,52,26,18,4,0.5197197303466213,19.872211004,13.8
5065,5,Arkansas,Izard County,13593,0.4813506952107702,580.58,23.41279410000001,36.09604046,-91.90847954,0.0013977782682262929,0.00029426910910027216,0.00029426910910027216,2358,37828,20.15,12.5685,14.9,37.8,33.5,13.8,41,27,25,6,0.7627455307879055,19.661089295,13.1
5067,5,Arkansas,Jackson County,16811,0.5034203795134138,633.94,26.51828249,35.59802983,-91.21494602,0.0,0.0017250609719826305,0.0013681518053655346,3732,36573,30.67,11.968,21.1,41.1,27.7,10.2,51,30,18,4,1.2083754684432813,22.098124353,23.8
5069,5,Arkansas,Jefferson County,68114,0.5057991015062983,870.75,78.22451909,34.26767081,-91.92619839,0.0037877675661391204,0.0005138444372669349,0.0004991631676307367,13900,38596,41.42,38.3428,14.0,38.5,29.7,17.8,54,28,15,4,0.5821123410752562,21.331822966,15.9
5071,5,Arkansas,Johnson County,26742,0.5040011966195498,659.8,40.53046378,35.56759135,-93.46036368,0.003328098122803081,0.00029915488744297364,0.00029915488744297364,5761,39381,26.56,17.4932,20.6,41.2,22.3,15.8,55,26,17,4,0.3365492483733453,20.752465241,12.9
5073,5,Arkansas,Lafayette County,6682,0.50868003591739,528.27,12.64883488,33.24116713,-93.60677071,0.0,,,1498,35527,25.23,8.3101,18.3,41.3,24.0,16.5,46,29,21,4,0.0,20.145484054,29.0
5075,5,Arkansas,Lawrence County,16434,0.5063891931361811,587.61,27.96752948,36.04188196,-91.10867198,0.01064865522696848,0.00024339783375927954,0.00024339783375927954,2776,40308,26.64,13.6298,14.5,40.4,30.1,15.0,48,26,19,5,0.3170256784714616,19.39464182,9.3
5077,5,Arkansas,Lee County,8985,0.4380634390651085,602.62,14.90989347,34.78498904,-90.78383866,0.0,,,3098,28080,18.95,7.2434,27.0,40.8,23.3,8.9,51,28,17,4,0.0,24.770229015,16.4
5079,5,Arkansas,Lincoln County,13383,0.3818276918478667,561.52,23.83352329,33.95317155,-91.74002806,0.0,,,2647,44951,19.07,8.8047,18.7,50.3,22.1,8.9,54,29,14,4,0.0,22.467420691,15.5
5081,5,Arkansas,Little River County,12326,0.5184163556709395,532.25,23.15829028,33.70375665,-94.23468591,0.0019471036832711343,0.00032451728054518905,0.00032451728054518905,1942,43559,30.51,12.263,11.8,42.7,34.0,11.4,48,27,20,4,0.0,21.064747174,20.8
5083,5,Arkansas,Logan County,21737,0.5007590743892901,708.13,30.69634107,35.21413234,-93.71951016,0.0018861848461149192,0.00032203155909279113,0.00032203155909279113,3950,41471,27.62,14.3914,14.9,45.0,28.0,12.1,49,28,18,4,0.0,20.399456184,18.0
5085,5,Arkansas,Lonoke County,73657,0.5071479967959597,770.73,95.56783828,34.75392199,-91.88742357,0.0,,,8651,56651,16.05,38.6063,11.3,35.1,33.3,20.3,57,28,14,2,0.0,18.585972716,12.8
5087,5,Arkansas,Madison County,16481,0.5006977731933742,834.26,19.75523218,36.01038185,-93.72524943,0.0,,,3002,42674,25.62,9.0931,20.3,45.6,21.6,12.5,48,30,18,4,0.0,20.813868314,12.1
5089,5,Arkansas,Marion County,16722,0.5090898217916517,597.01,28.00958108,36.26844485,-92.68451899,0.0,,,3082,36581,30.07,15.9646,13.1,36.8,32.8,17.2,37,30,28,5,0.0,19.92201061,17.0
5091,5,Arkansas,Miller County,43592,0.50883189576069,625.58,69.68253461,33.31403423,-93.89285258,0.0,0.0,0.0,9228,42162,25.19,31.3261,14.0,35.9,33.5,16.6,55,28,16,4,0.0,21.478718195,12.3
5093,5,Arkansas,Mississippi County,41239,0.5131550231576906,900.57,45.79210944,35.76271485,-90.05194370000002,0.002376391280098936,0.00019399112490603557,0.00021824001551928998,10325,36718,51.49,22.8877,19.3,38.6,29.3,12.8,55,26,14,3,0.31188923106767863,23.644712474,17.3
5095,5,Arkansas,Monroe County,6900,0.5349275362318839,607.12,11.36513375,34.6815935,-91.20540287,0.0,,,1769,32922,26.05,7.3329999999999975,22.9,43.0,23.6,10.5,46,29,22,5,0.0,22.240461226,17.2
5097,5,Arkansas,Montgomery County,8924,0.5053787539220079,779.88,11.44278607,34.53704874,-93.65824478,0.0,,,1649,38318,17.48,7.5139999999999985,21.8,36.5,30.9,10.8,40,28,26,5,0.0,18.470426628,18.8
5099,5,Arkansas,Nevada County,8326,0.5044439106413644,617.84,13.47598084,33.66340119,-93.30632432,0.0,,,1738,37626,32.34,7.4162,13.2,43.8,27.6,15.4,48,27,19,4,0.0,21.285822663,14.1
5101,5,Arkansas,Newton County,7805,0.49340166559897497,820.9,9.50785723,35.91947491,-93.21612969,0.0,,,1340,36078,12.36,5.734,17.4,40.8,25.6,16.2,42,29,24,4,0.0,19.007814468,10.9
5103,5,Arkansas,Ouachita County,23606,0.5257138015758706,732.78,32.21430716,33.58839816,-92.87795984,0.0027958993476234857,0.0003812590019486571,0.00033889689062102863,5410,37624,25.5,17.8567,14.4,41.6,28.0,16.0,48,29,19,4,0.0,22.845478643,15.1
5105,5,Arkansas,Perry County,10352,0.5060857805255023,551.4,18.77402974,34.9459153,-92.94372564,0.0,,,1502,45342,13.72,9.0497,16.6,40.7,30.8,11.9,47,30,20,4,0.0,18.916973608,14.9
5107,5,Arkansas,Phillips County,18029,0.5298685451217483,695.66,25.91639594,34.43268455,-90.84800154,0.0057684841089356035,0.00038826335348605024,0.0003327971601309002,6301,29945,24.08,14.7443,21.6,30.1,34.3,14.0,53,26,18,4,0.7140717732542016,24.354407224,18.7
5109,5,Arkansas,Pike County,10673,0.5000468471844842,600.62,17.76997103,34.16250414,-93.65789349,0.0,,,1856,41534,22.97,9.4119,15.2,38.9,31.2,14.7,49,26,20,4,0.0,20.061536848,14.3
5111,5,Arkansas,Poinsett County,23974,0.5142237423875865,758.39,31.61170374,35.57433534,-90.66268713,0.0,,,5592,37370,23.11,14.5216,19.4,44.3,26.3,10.1,51,28,18,4,0.0,21.81181141,20.9
5113,5,Arkansas,Polk County,20049,0.5128435333433089,857.68,23.37585113,34.48254879,-94.22728802,0.003192179161055414,0.00034914459574043595,0.00029926679634894514,3962,39048,24.94,11.8121,15.4,37.4,34.0,13.3,46,27,22,5,0.35383310888323605,20.483963328,13.1
5115,5,Arkansas,Pope County,64000,0.504359375,812.55,78.76438373,35.44871474,-93.03212219,0.002203125,0.00015625,0.000171875,9647,45788,42.31,32.5358,15.2,35.5,27.4,22.0,56,26,14,4,1.6485625,19.385628677,11.1
5117,5,Arkansas,Prairie County,8074,0.4967797869705226,647.96,12.46064572,34.83624419,-91.55162157,0.0,,,1254,43245,20.07,7.0143,17.8,40.0,27.1,15.1,45,30,23,4,0.0,18.546803799,14.8
5119,5,Arkansas,Pulaski County,392680,0.5219237037791586,759.76,516.8474255,34.77054088,-92.31355101,0.004970968727717225,0.0005424264031781604,0.0005602526230009168,64312,49957,69.15,244.7694,9.6,26.2,30.2,34.1,56,27,15,4,0.546373637567485,18.180889407,11.9
5121,5,Arkansas,Randolph County,17948,0.5055716514374861,652.19,27.51958785,36.3415714,-91.02455531,0.0020057945174949856,0.00011143302874972141,0.00011143302874972141,3050,37799,23.62,13.1986,17.3,35.6,33.1,14.0,48,27,20,6,0.8309560953866726,20.486118772,18.8
5123,5,Arkansas,St. Francis County,25439,0.4487597782931719,634.77,40.07593302,35.02201976,-90.74828138,0.002122724949880105,0.0002751680490585322,0.0002358583277644561,7586,33257,26.16,17.2819,19.4,38.8,31.2,10.6,55,29,15,3,0.4781634498211408,24.12771764,18.3
5125,5,Arkansas,Saline County,121421,0.5100600390377282,723.6,167.80127140000005,34.64916145,-92.67583224,0.0010953624167153954,0.00014000872995610314,0.00013177292231162648,11695,63677,16.88,68.1551,9.6,31.5,32.9,26.1,52,27,18,3,0.0,16.490518717,12.7
5127,5,Arkansas,Scott County,10319,0.4925864909390445,892.32,11.56423705,34.85588887,-94.0632176,0.002325806764221339,0.00038763446070355656,0.00038763446070355656,2054,35826,27.62,5.9127,21.1,43.0,26.8,9.1,51,27,19,4,0.0,20.044696997,18.2
5129,5,Arkansas,Searcy County,7958,0.4988690625785373,666.1,11.94715508,35.9109364,-92.69936482,0.0,,,1912,31659,15.46,7.4058,15.5,45.1,26.9,12.5,43,28,24,6,0.0,19.924647373,16.3
5131,5,Arkansas,Sebastian County,127753,0.5114165616463019,531.91,240.17784959999997,35.19605503,-94.27162713,0.004884425414667366,0.0006262083864958161,0.0006575188058206068,19527,46843,47.6,107.5708,16.8,32.0,31.4,19.7,54,27,14,4,0.5093579015756968,21.649019947,12.4
5133,5,Arkansas,Sevier County,17139,0.496936810782426,565.13,30.32753526,33.99780401,-94.2424869,0.0,,,3402,44100,26.88,12.314,25.7,36.1,26.7,11.5,58,24,14,4,0.7716902969834879,19.561479789,14.4
5135,5,Arkansas,Sharp County,17366,0.5065069676379131,604.44,28.73072596,36.16258158,-91.47819342,0.0,,,3541,36032,18.18,16.349,16.4,42.0,30.3,11.3,41,27,27,6,0.0,21.088879808,19.5
5137,5,Arkansas,Stone County,12457,0.5075058200208717,606.41,20.54220742,35.86251946,-92.15684085,0.0019266275989403548,0.00032110459982339246,0.00032110459982339246,2497,34009,18.34,11.3488,20.4,36.3,30.5,12.8,43,29,26,5,0.0,20.459451544,21.2
5139,5,Arkansas,Union County,39126,0.5134181873945713,1039.21,37.64975318,33.16887091,-92.59746952,0.003067014261616317,0.00043449368706231155,0.00040893523488217553,7000,45335,70.63,19.3233,15.2,35.2,28.7,20.8,50,29,18,4,0.3659459183151869,19.92321164,13.6
5141,5,Arkansas,Van Buren County,16603,0.5028006986689153,708.14,23.44592877,35.58095779,-92.51295036,0.008552671203999277,0.00024092031560561344,0.00024092031560561344,2685,40486,39.46,14.7753,14.2,43.9,27.8,14.1,43,27,24,6,0.0,18.995632143,15.4
5143,5,Arkansas,Washington County,236961,0.5006140250927368,941.97,251.5589668,35.976844,-94.21800746,0.0030469148931680737,0.00037558923198332216,0.00037558923198332216,34741,50893,43.01,100.8663,15.0,26.3,25.8,32.8,63,23,11,2,1.1658627369060732,18.972600972,8.9
5145,5,Arkansas,White County,78727,0.5132419627319725,1035.08,76.05885535,35.25688493,-91.74908296,0.004661678966555311,0.0006732124938077153,0.0006478082487583676,12505,44811,28.83,32.7917,14.6,38.4,25.6,21.4,56,26,15,4,1.016246014709058,19.345567322,13.4
5147,5,Arkansas,Woodruff County,6490,0.5191063174114021,586.79,11.06017485,35.18902527,-91.2439489,0.0,,,1509,34306,31.64,6.6259,20.0,42.5,25.5,12.0,46,29,21,5,0.0,21.44540376,26.8
5149,5,Arkansas,Yell County,21535,0.4979800325052241,929.98,23.15641197,35.00292371,-93.41171338,0.0035755746459252384,0.00041792430926398884,0.00041792430926398884,3453,41729,25.51,10.6658,19.9,40.9,25.7,13.5,52,26,18,4,0.0,20.807526357,14.1
6001,6,California,Alameda County,1666753,0.5079984856784419,739.02,2255.355741,37.64629437,-121.8929271,0.001661913912859314,0.0002129889671715005,0.00020578934011218216,147394,101744,79.52,832.2874,12.0,17.6,24.4,46.0,56,28,13,4,0.7583835157338851,9.7327103382,6.9
6003,6,California,Alpine County,1101,0.4659400544959128,738.33,1.4912031209999999,38.59678594,-119.8223594,0.0,,,190,55384,187.52,2.4081,11.1,28.7,30.2,30.0,41,37,22,3,0.0,14.455123742,6.7
6005,6,California,Amador County,39383,0.4559835462001371,594.58,66.23667126,38.44583082,-120.65696,0.001294974989208542,0.00015234999873041667,0.00015234999873041667,4130,58515,43.66,31.0303,9.7,28.7,41.3,20.3,38,32,24,6,0.0,10.832189668,13.8
6007,6,California,Butte County,231256,0.5055609367973155,1636.46,141.3147892,39.66727762,-121.6005252,0.0020540007610613344,0.00017296848514200712,0.0002032379700418584,42016,50945,40.6,61.1277,10.7,22.7,40.0,26.5,53,25,16,5,1.21570034939634,13.768327267,9.8
6009,6,California,Calaveras County,45602,0.5022806017279944,1020.01,44.70740483,38.20537103,-120.552913,0.0006578658830753037,8.771545107670716e-05,0.00010964431384588396,5454,62984,31.84,27.5144,9.6,27.6,44.0,18.7,37,32,25,4,0.0,10.951935641,11.7
6011,6,California,Colusa County,21627,0.4892495491746428,1150.73,18.79415675,39.17881957,-122.2331726,0.0,,,2350,57249,77.96,7.0112,30.6,23.7,30.3,15.4,58,25,14,4,0.0,12.217255923,21.0
6013,6,California,Contra Costa County,1150215,0.5109757740944084,715.94,1606.58016,37.91923498,-121.9289527,0.0012267271770929782,0.00014692905239455234,0.00014953726042522486,88980,101463,68.36,580.9411,10.6,17.6,30.1,41.7,52,30,15,4,0.35584999326212924,9.9405871282,8.8
6015,6,California,Del Norte County,27828,0.4542187724593934,1006.37,27.65185767,41.74228275,-123.8974063,0.0017248814144027599,0.00017967514733362085,0.00021561017680034496,5065,48518,34.27,11.3507,19.0,31.5,35.2,14.3,51,30,16,4,0.0,15.132244804,10.2
6017,6,California,El Dorado County,190678,0.5013006219910006,1707.88,111.6460173,38.77965956,-120.5233166,0.0012009775642706554,0.000152088861850869,0.00014684441833877007,15401,81869,41.0,53.3439,6.9,21.2,38.2,33.7,46,33,18,4,0.14936175122457754,11.220360679,8.2
6019,6,California,Fresno County,994400,0.5011906677393403,5957.99,166.901925,36.75733899,-119.6466953,0.0015617457763475464,0.0004716411906677394,0.0004304102976669348,208627,52318,44.41,56.0204,24.7,22.9,31.7,20.7,62,23,11,2,0.7700522928399035,13.358907816,10.8
6021,6,California,Glenn County,28047,0.4924590865333191,1313.95,21.34556109,39.59875897,-122.3938452,0.0004991621207259243,0.00010696331158412664,0.00010696331158412664,4271,47365,53.59,8.4029,24.7,28.2,33.2,13.9,56,26,14,4,0.0,13.18078902,9.7
6023,6,California,Humboldt County,136373,0.5020055289536786,3567.99,38.22123941,40.69923009,-123.876044,0.0017305478357152806,0.0001539894260594106,0.0001979864049335279,27002,49471,45.07,17.7453,9.7,23.5,37.1,29.8,53,27,16,4,0.9166477235229848,14.468508365,8.9
6025,6,California,Imperial County,181827,0.4872323692300923,4176.6,43.53469329,33.0393082,-115.3669042,0.0014739285144670484,0.00013199359831048195,0.00015399253136222894,37014,46633,44.6,13.8618,31.0,24.5,30.0,14.5,62,25,12,3,0.4450824135029451,12.840010729,9.2
6027,6,California,Inyo County,17987,0.4971924167454273,10180.88,1.76674315,36.51112084,-117.41119779999998,0.0015566798243175626,0.00022238283204536612,0.0002779785400567076,2172,53793,66.64,0.9422,11.2,29.3,33.5,26.1,44,30,21,6,0.0,11.833847367,9.2
6029,6,California,Kern County,896764,0.4873902163779991,8131.92,110.27703170000001,35.34329425,-118.7277796,0.0017250915514003685,0.00021298803252583733,0.00020183682663443226,177021,51586,56.47,36.938,26.2,27.7,30.0,16.1,63,24,11,2,0.5081381500595474,15.31417715,9.3
6031,6,California,Kings County,151366,0.4503653396403421,1389.42,108.9418606,36.07409056,-119.8159973,0.0016384128536130968,0.00014534307572374244,0.00014534307572374244,25481,58255,37.64,33.5716,26.3,25.5,34.7,13.5,63,25,10,2,0.27683892023307743,14.270521128,10.4
6033,6,California,Lake County,64382,0.5007921468733497,1256.46,51.24078761,39.10124298,-122.7536244,0.0007610822900810786,6.212916653723089e-05,0.00012425833307446178,11689,45086,33.96,27.6531,14.8,30.1,39.3,15.8,44,30,21,4,0.0,14.401200944,12.7
6035,6,California,Lassen County,30802,0.378124797091098,4541.18,6.782818562999999,40.67311306,-120.59350990000002,0.0007791701837543016,0.0001298616972923836,0.0001298616972923836,3653,57705,43.55,2.8160000000000003,17.2,33.2,37.5,12.0,56,30,12,2,0.802285565872346,13.718787061,19.6
6037,6,California,Los Angeles County,10105518,0.5070124064892072,4057.88,2490.344219,34.30828379,-118.2282411,0.001901436423150204,0.0002647068660903875,0.0002563945757159603,1409155,67986,70.4,877.5688,21.3,20.7,26.2,31.8,58,27,12,4,0.7022660293119066,10.847678109,8.4
6039,6,California,Madera County,157672,0.5179359683393373,2137.07,73.77952056,37.21513971,-119.76655890000002,0.0006722816987163225,0.00031077172865188487,0.0003297985691815922,30201,53632,45.8,23.8485,28.1,25.0,32.4,14.5,59,25,14,2,0.0,13.444284132,12.3
6041,6,California,Marin County,259666,0.5109525313287069,520.31,499.0601757,38.07122463,-122.7210631,0.0015057805026457065,0.00017329954634029868,0.00018100174839986752,16742,122933,80.28,217.528,6.8,10.9,23.5,58.8,43,32,21,5,0.25525097625411103,9.7252337607,5.3
6043,6,California,Mariposa County,17471,0.4903554461679354,1448.82,12.05877887,37.57978556,-119.9073334,0.0018888443706713985,0.00017171312460649078,0.00017171312460649078,2569,51402,46.25,7.181,9.6,26.5,40.4,23.4,39,32,25,5,0.0,11.745263222,7.1
6045,6,California,Mendocino County,87606,0.5045658973129694,3506.34,24.98502712,39.4381191,-123.3911313,0.0011414743282423575,0.0001598064059539301,0.0001598064059539301,15140,51386,40.64,11.672,13.1,25.8,36.5,24.7,48,29,18,4,0.4221628655571536,12.905413824,7.6
6047,6,California,Merced County,274765,0.4954524775717431,1934.97,141.9996176,37.18922369,-120.7209035,0.0008370789583826177,6.551052717777011e-05,8.734736957036013e-05,56863,56169,35.07,44.318999999999996,30.6,25.8,29.6,14.0,65,23,11,2,0.7153676778337852,14.129606461,14.3
6049,6,California,Modoc County,8777,0.5002848353651589,3917.77,2.240305072,41.58965602,-120.7244817,0.012760624359120428,0.00022786829212715048,0.00045573658425430096,1631,45227,49.43,1.3497,14.4,32.3,37.4,15.9,43,29,25,4,0.0,13.824458393,18.6
6051,6,California,Mono County,14250,0.4687017543859649,3048.98,4.6736941530000005,37.93899289,-118.8872409,0.0011228070175438596,0.00014035087719298245,0.00014035087719298245,1312,66499,71.21,4.637,11.3,22.8,35.3,30.6,54,32,15,2,0.0,11.936718182,5.6
6053,6,California,Monterey County,435594,0.4908400942161738,3280.6,132.77876,36.21862405,-121.2413397,0.0016988296441181464,0.00010101149235297088,0.00010789863955885526,55614,69665,59.64,43.4064,28.7,20.4,26.4,24.5,60,25,12,4,0.6712994210204916,12.249990899,8.4
6055,6,California,Napa County,139417,0.5022701679135256,748.36,186.2967021,38.50735751,-122.332839,0.002065745210411929,0.00036580904767711256,0.00034429086840198826,11829,85624,71.16,74.1087,14.9,18.0,32.2,34.9,50,28,17,5,0.4678052174412016,9.9328479729,8.6
6057,6,California,Nevada County,99696,0.5093082972235596,957.77,104.0917966,39.30394768,-120.7627281,0.0016650617878350186,7.02134488846092e-05,0.00010030492697801316,10171,66681,42.09,56.6503,5.8,18.4,39.2,36.6,40,31,22,6,0.0,11.508296567,6.2
6059,6,California,Orange County,3185968,0.5063349663273454,790.57,4029.963191,33.70147516,-117.76459979999998,0.0016035942608337561,0.0002580063578793007,0.000243254169533404,330559,89373,72.73,1405.6023,14.9,17.1,28.1,39.9,56,28,14,4,0.8609006744574961,9.311197445,8.5
6061,6,California,Placer County,393149,0.5112616336299978,1407.01,279.42161039999996,39.06167234,-120.7240569,0.0018822380318912167,0.00017041884883339396,0.00017804954355727726,27596,89175,57.94,118.7866,5.4,18.2,37.8,38.6,50,29,18,4,0.4882067613042384,9.7846207167,6.7
6063,6,California,Plumas County,18804,0.5022335673261008,2553.04,7.36533701,40.00355989,-120.8395236,0.006700701978302489,0.0003722612210168049,0.00042544139544777694,2317,55079,56.27,6.2138,6.1,25.2,45.2,23.5,37,31,25,5,1.0090406296532652,11.489555607,11.0
6065,6,California,Riverside County,2450758,0.5016337802426841,7206.48,340.0769863,33.74314981,-115.9933578,0.0013587632887457676,0.0001668871426717775,0.00016647910564813009,307511,66793,33.47,117.7547,18.3,26.9,33.0,21.8,59,25,14,3,0.4506328246199747,12.499944322,9.4
6067,6,California,Sacramento County,1540975,0.5113665049725011,964.64,1597.461229,38.45106826,-121.3425374,0.0017067116598257596,0.00034912960950047857,0.0003374486931974886,217138,69475,56.45,595.4947,12.6,22.3,34.6,30.4,57,27,13,4,0.7158909132205258,11.550028552,9.5
6069,6,California,San Benito County,61537,0.4987893462469734,1388.71,44.31234743,36.60308176,-121.069975,0.002941319856346588,0.0001462534735199961,0.00013000308757332986,5294,80063,42.01,13.9972,20.1,24.8,35.4,19.7,56,28,12,2,0.0,10.783185266,9.0
6071,6,California,San Bernardino County,2171603,0.5022340639610463,20056.94,108.27189990000001,34.84060306,-116.1774685,0.001719927629497657,0.0003135932304385286,0.0002942526787815268,317514,63310,39.86,36.1918,20.5,26.5,32.8,20.3,62,26,11,2,0.42011177917879095,12.628276552,9.4
6073,6,California,San Diego County,3343364,0.4967795908551985,4206.63,794.7844236000003,33.03484597,-116.7365326,0.0015801450275829973,0.0002694890535400872,0.00026589985415886516,372148,78777,66.42,291.0584,12.9,18.4,30.6,38.1,57,27,12,4,0.8870179854780993,10.753175291,7.1
6075,6,California,San Francisco County,883305,0.4901387402992172,46.87,18845.85022,37.75215114,-122.4385672,0.0032695388342644954,0.0006136045873169517,0.00052869620346313,87596,110601,186.82,8565.223,11.5,12.3,19.1,57.1,53,28,16,4,0.9988305285263868,10.326062381,6.8
6077,6,California,San Joaquin County,752660,0.5015863736614142,1391.32,540.9682891,37.93433732,-121.2730061,0.0014309249860494778,0.00011426141949884409,0.00014614832726596338,105351,63567,39.96,176.4806,21.1,28.2,32.2,18.4,61,25,12,2,0.3329338612388064,11.706166224,10.4
6079,6,California,San Luis Obispo County,284010,0.492651667194817,3298.57,86.10094677,35.38822029,-120.4039028,0.001373191084820957,0.00022534417802190062,0.00022182317524030844,34200,70626,58.75,37.2825,9.1,19.8,36.4,34.6,49,28,17,4,1.1639942255554379,10.783296935,8.0
6081,6,California,San Mateo County,769545,0.5058014800953811,448.41,1716.163779,37.4228808,-122.32755459999998,0.0013995282926924349,0.00025729489503537804,0.00022740710419793516,51830,122930,137.07,623.2176,10.8,15.0,24.2,49.9,51,31,15,4,0.3480290301411873,8.6133573373,7.6
6083,6,California,Santa Barbara County,446527,0.499745816042479,2735.09,163.25861310000005,34.65329488,-120.0188492,0.001921496348485086,0.00017244197999225131,0.00018811852362791049,54029,75646,62.78,57.8895,19.0,17.9,29.2,33.8,56,25,14,4,1.2104441612713228,11.377310554,8.7
6085,6,California,Santa Clara County,1937570,0.4937638382097163,1290.1,1501.875824,37.23104908,-121.6970462,0.0014673018265146552,0.0002611518551587813,0.00024670076435948123,139074,125933,164.67,525.9251,11.9,14.5,22.3,51.3,55,29,13,4,0.6901613877176049,8.2690140125,7.6
6087,6,California,Santa Cruz County,274255,0.5051138538950977,445.17,616.068019,37.05580291,-122.0066524,0.0011996134983865382,7.657107436509818e-05,9.844852418369766e-05,32027,84213,50.28,239.7466,13.6,15.8,30.6,40.0,54,30,14,4,1.1400630799803102,11.440834335,6.9
6089,6,California,Shasta County,180040,0.5091812930459898,3775.4,47.68766223,40.76391419,-122.0396884,0.002638302599422351,0.00046656298600311033,0.0005332148411464119,26919,53908,42.75,20.9763,9.2,24.8,43.8,22.2,47,29,19,4,0.5080426571872917,13.963535044,11.0
6091,6,California,Sierra County,2987,0.4941412788751256,953.21,3.133622182,39.57713498,-120.52007009999998,0.0,,,392,52308,73.39,2.4769,6.7,26.6,48.0,18.7,36,35,27,4,0.0,11.80830717,6.9
6093,6,California,Siskiyou County,43724,0.5029960662336475,6277.89,6.964760452999999,41.59198861,-122.5407434,0.0013265026072637456,0.00013722440764797364,0.00018296587686396487,7396,47560,40.79,3.8569999999999998,10.0,25.5,41.9,22.5,42,30,23,6,0.37439392553288814,14.066326017,13.4
6095,6,California,Solano County,446610,0.5029287297642239,821.77,543.4732346,38.26827353,-121.9357113,0.001502429412686684,0.00026869080405723115,0.0002530171738205593,34281,82808,53.14,193.2512,12.0,23.3,38.5,26.2,53,30,15,3,0.256442981572289,11.705074337,10.2
6097,6,California,Sonoma County,499942,0.5116953566613727,1575.85,317.2522765,38.52746429,-122.8862506,0.0013781598665445194,0.00015001740201863416,0.00016401902620703999,48846,81002,56.98,130.2313,12.0,18.8,34.4,34.9,51,30,16,4,0.5871481091806651,10.07567654,7.2
6099,6,California,Stanislaus County,549815,0.5047134035993925,1494.83,367.81105539999993,37.55862499,-120.9970722,0.0018915453379773199,0.000187335740203523,0.00022371161208770225,84744,59616,42.95,121.947,21.7,28.6,32.8,16.9,59,27,12,3,0.5094113474532342,12.789751068,11.4
6101,6,California,Sutter County,96807,0.5018748644209613,602.41,160.6995236,39.03417539,-121.6945899,0.0,3.0989494561343705e-05,2.0659663040895805e-05,13011,57879,36.36,57.2318,22.0,23.9,36.4,17.7,58,26,14,4,0.021775284845104177,11.952152448,10.3
6103,6,California,Tehama County,63916,0.5033637899743413,2949.71,21.66857081,40.12570935,-122.2370171,0.0010169597596845859,0.0001408098128794042,0.00017210088240816068,10749,47572,34.88,9.3826,15.6,30.7,38.2,15.5,51,27,18,4,0.0,14.258973789,9.9
6105,6,California,Trinity County,12535,0.4860789788591943,3179.25,3.9427537939999997,40.64917670000001,-123.114713,0.0037495013960909453,0.000319106501794974,0.000319106501794974,2656,40680,39.4,2.8136,9.4,33.4,37.6,19.7,39,32,25,4,0.0,14.700216999,7.8
6107,6,California,Tulare County,465861,0.499683381952986,4824.22,96.56711344,36.22026558,-118.8020203,0.001275058440178508,0.0001867509836625088,0.00018031129457069813,102451,48763,39.99,31.1366,30.2,26.0,29.5,14.3,63,23,11,2,0.4781640875711854,13.799712245,9.3
6109,6,California,Tuolumne County,54539,0.4811786061350593,2220.88,24.55738266,38.02644018,-119.9525093,0.002768660958213389,3.6671006069051506e-05,0.00011001301820715451,6417,56500,45.07,14.2412,9.6,28.4,42.0,20.0,41,30,23,6,0.4386585745979941,11.343019399,9.7
6111,6,California,Ventura County,850967,0.5048938442971349,1843.13,461.696679,34.44465746,-119.0910613,0.0012773703328096155,0.0002315013390648521,0.00021622460095397356,76206,84170,63.01,157.8939,15.6,18.9,32.4,33.1,55,28,14,4,0.5473937297215989,10.561021793,9.3
6113,6,California,Yolo County,220408,0.515689085695619,1014.69,217.21708109999997,38.68278902,-121.9018288,0.0007077783020580015,5.4444484773692416e-05,6.351856556930783e-05,42311,67804,63.97,77.3941,13.6,18.5,26.3,41.6,62,24,11,2,1.9616983049617076,10.906577644,6.3
6115,6,California,Yuba County,78041,0.4938173524173191,631.84,123.5138643,39.26255932,-121.3535644,0.0028062172447815893,0.00021783421534834254,0.00030753065696236594,13256,47504,40.01,45.4118,18.0,23.1,42.3,16.7,60,26,13,2,0.7060903883855922,14.179140049,11.9
8001,8,Colorado,Adams County,511868,0.4950455976931553,1167.65,438.37451289999996,39.87432092,-104.3362578,0.001898927067134496,0.00044738096540514346,0.0004141692780169888,46711,70199,48.15,150.4012,17.0,28.4,31.0,23.6,63,25,11,2,0.8303390717919463,16.324605425,7.7
8003,8,Colorado,Alamosa County,16683,0.4988311454774321,722.64,23.08618399,37.57250606,-105.7885451,0.0026374153329736857,0.0004195888029730864,0.00035964754540550266,2954,42897,40.84,9.8196,13.5,27.3,33.1,26.1,58,26,15,3,1.5420487921836599,17.284642561,6.4
8005,8,Colorado,Arapahoe County,651215,0.5044447686248014,798.1,815.956647,39.64977461,-104.3353617,0.0012637915281435473,0.00024415899510914213,0.00022880308346705773,52474,76665,69.17,318.5591,7.6,20.7,29.5,42.2,55,27,12,2,0.5003355266693795,13.263552471,7.0
8007,8,Colorado,Archuleta County,13765,0.4988739556847076,1350.18,10.19493697,37.19474156,-107.0476867,0.0007991282237559028,0.00014529604068289138,0.00014529604068289138,1525,53337,37.41,7.0517,8.0,21.5,31.7,38.9,41,32,24,3,0.0,13.476071073,4.5
8009,8,Colorado,Baca County,3585,0.497907949790795,2554.97,1.403147591,37.31940883,-102.5603223,0.021757322175732216,0.0005578800557880057,0.0008368200836820082,678,38294,38.58,0.8834,15.2,27.3,35.3,22.1,41,28,23,9,0.0,15.17142555,15.1
8011,8,Colorado,Bent County,5882,0.3458007480448827,1512.86,3.8880002119999997,37.95474293,-103.0720195,0.0,,,1353,37659,28.52,1.4998,14.2,48.6,24.7,12.4,50,29,16,4,0.0,18.217267397,7.5
8013,8,Colorado,Boulder County,326078,0.4968412465729058,726.29,448.9639125,40.09313619,-105.3546767,0.001962720576058489,0.00022080606480657998,0.00020240555940603168,30699,83591,78.87,189.2288,4.9,12.3,22.0,60.8,57,29,12,2,1.2220756996792181,11.318441782,4.8
8014,8,Colorado,Broomfield County,69267,0.5027791011592821,33.03,2097.0935510000004,39.95998787,-105.0566324,0.0014292520247737015,0.0003176115610608226,0.000288737782782566,3364,96924,121.76,876.0823,3.2,14.7,26.7,55.5,56,29,12,2,0.0494319084123753,11.625377957,6.8
8015,8,Colorado,Chaffee County,20027,0.4716133220152794,1013.4,19.7621867,38.74745778,-106.19265729999998,0.0012483147750536776,9.98651820042942e-05,9.98651820042942e-05,2023,56168,36.12,11.2029,7.1,26.7,32.6,33.5,41,31,25,5,0.0,13.488872927,7.0
8017,8,Colorado,Cheyenne County,1876,0.4914712153518124,1778.28,1.054951976,38.82777431,-102.6032558,0.005863539445628997,0.001066098081023454,0.001066098081023454,230,54504,115.52,0.5652,9.9,36.4,33.8,20.0,46,29,17,7,0.0,14.000025537,12.3
8019,8,Colorado,Clear Creek County,9605,0.4724622592399792,395.23,24.30230499,39.68864463,-105.6463118,0.0,,,686,74019,53.37,14.7003,1.7,20.9,30.9,46.5,41,39,20,2,0.0,12.483216724,6.7
8021,8,Colorado,Conejos County,8200,0.4979268292682927,1287.39,6.369476227000001,37.201606,-106.19174879999998,0.002073170731707317,0.00036585365853658537,0.00036585365853658537,1747,38777,30.0,3.4558,13.4,32.4,34.0,20.2,51,27,17,4,0.0,15.554174957,8.2
8023,8,Colorado,Costilla County,3828,0.4822361546499477,1226.95,3.1199315380000003,37.27732493,-105.4276548,0.0,,,964,31557,29.2,2.3391,21.5,23.8,35.6,19.1,40,28,27,5,0.0,17.104496838,13.7
8025,8,Colorado,Crowley County,5858,0.2683509730283373,787.42,7.4394859160000015,38.32608609,-103.7844965,0.0,,,1341,35880,22.49,2.0231,15.2,41.7,33.5,9.6,53,33,13,2,0.0,18.629092853,5.6
8027,8,Colorado,Custer County,4954,0.4842551473556722,738.63,6.70701163,38.10883162,-105.3683478,0.0,,,576,55242,27.54,5.9922,7.0,21.0,35.1,36.9,32,34,31,3,0.0,13.658191367,7.2
8029,8,Colorado,Delta County,30953,0.4992084773689142,1142.05,27.10301651,38.86246243,-107.8631342,0.0015830452621716795,0.0002261493231673828,0.00019384227700061383,4429,46786,25.89,12.9933,9.6,38.2,31.0,21.2,44,29,23,6,0.062287985009530575,14.599282442,9.8
8031,8,Colorado,Denver County,716492,0.4981241939896049,153.0,4682.954248,39.76018276,-104.8725695,0.002374066981906288,0.00048011701456541036,0.0004103325647739263,82104,68069,101.03,2162.4967,12.9,17.0,22.2,47.9,59,25,12,4,1.230003963756748,14.664503351,5.1
8033,8,Colorado,Dolores County,2074,0.4744455159112825,1067.05,1.943676491,37.75208676,-108.5211585,0.0,,,265,47482,85.05,1.6279,8.2,38.3,32.2,21.3,44,31,23,5,0.0,15.27942802,5.7
8035,8,Colorado,Douglas County,342776,0.5007614302051485,840.25,407.94525439999995,39.33133796,-104.930001,0.0014411744112773355,0.00024214063995145517,0.00021880178308866436,8975,120670,47.91,153.2008,2.0,12.2,27.9,57.9,58,32,11,2,0.02253366630102457,10.723985989,4.9
8037,8,Colorado,Eagle County,54993,0.4697506955430691,1684.53,32.64590123,39.62754308,-106.6933637,0.0009637590238757661,9.092066262978924e-05,9.092066262978924e-05,3673,86896,62.1,19.485,10.7,15.7,25.4,48.1,60,29,10,0,0.0,12.546902347,2.4
8039,8,Colorado,Elbert County,26282,0.4947873069020622,1850.85,14.19996218,39.28656773,-104.1358721,0.0,,,1312,98247,19.24,5.2862,3.3,24.6,36.2,35.9,44,39,14,2,0.0,12.732064686,6.0
8041,8,Colorado,El Paso County,713856,0.494688004303389,2126.8,335.6479218,38.83240149,-104.5251411,0.001391036847767617,0.00025215169445938674,0.00023253989600143448,68538,67923,48.46,129.4884,6.3,20.2,35.6,37.9,57,28,12,2,0.8227065402546172,14.264909913,6.6
8043,8,Colorado,Fremont County,48021,0.4227108973157577,1533.07,31.32342294,38.47362326,-105.4399667,0.0004997813456612732,6.247266820765916e-05,8.329689094354553e-05,6525,47885,28.19,13.0046,9.7,39.8,32.3,18.2,46,30,20,5,0.0,15.569836581,8.2
8045,8,Colorado,Garfield County,59770,0.4891584406893089,2947.56,20.27778909,39.59921777,-107.902708,0.001840388154592605,0.00011711560983771123,0.00013384641124309854,4946,74421,72.49,8.2159,12.2,28.5,29.2,30.0,59,28,11,2,0.8774301489041325,13.763628695,4.4
8047,8,Colorado,Gilpin County,6121,0.4752491422970103,149.9,40.83388926,39.85646523,-105.5252597,0.0,,,410,72949,88.65,24.8432,2.4,22.0,36.8,38.7,39,40,16,1,0.0,12.742128838,5.3
8049,8,Colorado,Grand County,15525,0.4641545893719807,1846.33,8.408572682,40.10603347,-106.1178042,0.0006441223832528182,0.0001932367149758454,0.0001932367149758454,1219,69214,47.44,9.1771,4.5,26.5,31.2,37.8,49,35,15,2,0.0,14.168644525,4.7
8051,8,Colorado,Gunnison County,17246,0.4607445204685144,3239.1,5.324318484,38.66611652,-107.0320729,0.001333642583787545,0.00017395338049402758,0.00017395338049402758,1678,61268,62.22,3.7273,2.8,16.0,25.9,55.3,58,27,13,2,1.5130465035370522,14.971350569,2.4
8053,8,Colorado,Hinsdale County,811,0.4845869297163995,1117.25,0.725889461,37.82247444,-107.3004345,0.0,,,69,62149,60.02,1.2755,6.2,25.7,24.3,43.9,41,32,25,3,0.0,12.894842733,5.0
8055,8,Colorado,Huerfano County,6889,0.4900566119901292,1591.0,4.329981144,37.68473101,-104.9612585,0.020177093917840037,0.0004354768471476266,0.0004354768471476266,1459,38242,41.61,3.3275,8.5,28.7,41.3,21.4,34,31,28,7,0.0,13.173637306,8.4
8057,8,Colorado,Jackson County,1399,0.4824874910650465,1613.72,0.8669409809999999,40.66593870000001,-106.3408905,0.0,,,188,51457,91.56,0.8223,12.4,29.6,41.1,16.8,40,34,22,4,0.0,14.462951644,8.6
8059,8,Colorado,Jefferson County,580233,0.5014175339906555,764.21,759.2585807999999,39.58635604,-105.2517692,0.001042684576713148,0.00020164313301725343,0.000186132122785157,39799,85550,51.62,317.9872,5.6,20.6,29.7,44.1,49,32,15,4,0.3772553439738863,12.320125467,5.8
8061,8,Colorado,Kiowa County,1383,0.5133767172812725,1767.77,0.782341594,38.43260896,-102.7392145,0.018076644974692697,0.0036153289949385392,0.0028922631959508315,188,44704,50.93,0.4678,4.1,38.0,36.5,21.5,42,30,21,7,0.0,14.415797501,9.3
8063,8,Colorado,Kit Carson County,7163,0.4999301968448974,2160.82,3.314945252,39.30497777,-102.6022199,0.0025129135836939828,0.0004188189306156639,0.0004188189306156639,900,48342,51.28,1.6503,11.5,37.7,31.8,18.9,50,28,17,4,0.0,14.119193893,9.1
8065,8,Colorado,Lake County,7824,0.4622955010224949,376.91,20.75827121,39.20278823,-106.3555697,0.0008946830265848672,0.0,0.00012781186094069528,970,51802,40.8,11.7561,14.5,27.1,24.4,34.0,60,28,12,2,0.0,14.969632987,7.4
8067,8,Colorado,La Plata County,56310,0.4954537382347718,1692.08,33.27856839,37.28632032,-107.8429014,0.0014562244716746582,0.00023086485526549458,0.00023086485526549458,5005,66219,63.81,16.7055,5.0,20.3,30.8,43.9,51,29,15,2,0.5991475759190197,14.778477805,5.1
8069,8,Colorado,Larimer County,350518,0.5007645827033134,2596.0,135.02234209999997,40.66671597,-105.4625784,0.0017859282547543923,0.0001255285035290627,0.00014549894727232268,36054,71306,49.66,58.4931,4.2,19.2,30.2,46.3,56,27,15,4,0.016427116439098704,12.667672587,5.0
8071,8,Colorado,Las Animas County,14503,0.4779011239053989,4772.67,3.038760275,37.3153406,-104.0376458,0.0011721712749086395,0.00027580500586085635,0.00027580500586085635,2626,41485,50.18,1.7971,12.2,28.8,39.3,19.7,46,29,21,5,0.9711094256360752,15.036140121,10.2
8073,8,Colorado,Lincoln County,5610,0.4158645276292336,2577.63,2.176417872,38.98749519,-103.5136649,0.008021390374331552,0.0005347593582887701,0.0005347593582887701,744,46690,70.64,0.9664,9.7,53.1,24.4,12.8,49,29,17,5,0.0,14.783170586,9.0
8075,8,Colorado,Logan County,21528,0.4411928651059086,1838.55,11.70922738,40.7249637,-103.110817,0.0011612783351913787,0.0001858045336306206,0.0001858045336306206,2674,53168,48.95,4.9637,10.5,32.7,36.3,20.5,52,28,15,5,0.6330360460795244,15.533597307,11.1
8077,8,Colorado,Mesa County,153207,0.5057667077875032,3328.97,46.02234325,39.01787888,-108.469799,0.00268264504885547,0.0002088677410301096,0.00022844909175168243,21463,51132,41.69,20.1909,9.9,27.3,35.4,27.4,52,28,16,4,0.6600351158889607,15.635450965,8.2
8079,8,Colorado,Mineral County,776,0.5038659793814433,875.67,0.886178583,37.66954283,-106.9281698,0.0,,,72,60210,93.67,1.4663,3.2,19.3,37.6,39.9,33,33,32,4,0.0,12.747824237,6.0
8081,8,Colorado,Moffat County,13188,0.4871853199878677,4743.29,2.780348661,40.61810999,-108.2070876,0.0018198362147406734,0.00030330603579011223,0.00030330603579011223,1614,59500,75.64,1.3319999999999999,9.1,40.4,33.5,17.1,56,30,13,2,0.0,14.581587317,8.2
8083,8,Colorado,Montezuma County,26158,0.5068048015903357,2029.53,12.88869837,37.33859579,-108.5958857,0.0009557305604404006,0.00015291688967046407,0.00015291688967046407,4235,50180,69.44,6.1132,10.5,29.4,31.5,28.6,45,29,19,4,0.0,15.905568407,12.4
8085,8,Colorado,Montrose County,42214,0.5069171364950017,2240.7,18.83964832,38.40214114,-108.26390220000002,0.0013976405931681432,0.000189510588904155,0.000189510588904155,4854,52576,34.25,8.5723,11.2,31.8,33.1,23.9,47,28,19,5,0.0,15.431181265,7.7
8087,8,Colorado,Morgan County,28558,0.4954128440366973,1280.43,22.30344494,40.26279810000001,-103.8093302,0.002381119125989215,0.0003851810350864906,0.0003501645773513551,3409,55387,56.35,9.2547,19.9,31.1,31.4,17.6,55,26,15,4,0.367952937880804,14.186067013,10.2
8089,8,Colorado,Otero County,18432,0.5103624131944444,1261.96,14.60585122,37.9014485,-103.7173385,0.005750868055555556,0.00027126736111111107,0.00027126736111111107,3722,40064,32.43,7.1270000000000024,14.6,29.2,38.4,17.7,49,26,19,5,0.6611328125,16.209473009,11.5
8091,8,Colorado,Ouray County,4833,0.4938961307676392,541.59,8.923724588999999,38.14717457,-107.7675136,0.0,,,361,68900,42.46,6.1523,1.6,18.2,31.6,48.6,36,35,26,3,0.0,12.616688327,6.9
8093,8,Colorado,Park County,18556,0.4735934468635482,2193.85,8.45818994,39.120926,-105.7182065,0.0,,,1487,72121,23.05,6.7056,3.0,29.9,36.9,30.2,40,40,20,2,0.0,12.853324383,4.3
8095,8,Colorado,Phillips County,4286,0.5065328978068129,687.93,6.230285058,40.59414277,-102.3577703,0.009332711152589828,0.0018665422305179653,0.0016332244517032195,458,52367,49.4,3.1282,11.8,27.6,35.1,25.5,46,28,19,7,0.0,12.29095581,12.4
8097,8,Colorado,Pitkin County,17950,0.4825069637883008,970.7,18.49181003,39.21720112,-106.9310027,0.0013370473537604455,0.0002228412256267409,0.0002228412256267409,1222,89034,106.14,14.5678,3.7,14.8,18.4,63.1,48,34,18,2,0.0,12.266772787,1.9
8099,8,Colorado,Prowers County,12164,0.4974514962183492,1638.4,7.424316406,37.95544985,-102.3926052,0.002055244985202236,0.0003288391976323578,0.0003288391976323578,2553,42455,48.57,3.6517,17.9,25.9,38.8,17.4,55,26,16,4,0.5466951660637948,15.038081079,12.4
8101,8,Colorado,Pueblo County,167529,0.5072136764381092,2386.1,70.21038515,38.17359144,-104.5127437,0.00283533000256672,5.372204215389574e-05,0.00010147496851291418,28127,48308,36.95,29.9447,10.6,28.7,38.8,22.0,52,27,17,4,0.6350064764906375,16.428117379,9.5
8103,8,Colorado,Rio Blanco County,6336,0.4891098484848485,3220.93,1.967133716,39.97913541,-108.2179009,0.008996212121212122,0.0009469696969696971,0.0009469696969696971,653,63411,113.92,1.0571,7.2,33.7,38.8,20.2,52,30,15,4,1.5508207070707067,14.133557756,3.9
8105,8,Colorado,Rio Grande County,11250,0.5000888888888889,911.96,12.33606737,37.5836865,-106.3847838,0.0014222222222222225,0.0002666666666666667,0.0002666666666666667,1604,44171,38.38,7.4828,15.7,30.2,30.4,23.7,49,29,18,4,0.0,14.193381545,7.9
8107,8,Colorado,Routt County,25733,0.4793067267710722,2362.03,10.89444249,40.48596505,-106.9905548,0.0014767030661018926,0.00015544242801072551,0.00015544242801072551,1783,81033,67.39,7.1765,3.2,19.7,26.6,50.4,53,33,14,2,0.0,14.35470545,3.2
8109,8,Colorado,Saguache County,6843,0.4993423936869794,3168.53,2.159676569,38.08054629,-106.282466,0.0,,,1679,36869,26.39,1.3303,19.6,29.8,27.8,22.9,47,31,21,2,0.0,17.560154882,13.9
8111,8,Colorado,San Juan County,762,0.43963254593175854,387.49,1.9665023609999999,37.76248981,-107.67632890000002,0.0,,,109,46878,82.13,2.031,7.1,26.7,31.7,34.5,46,33,20,1,0.0,16.019892247,4.3
8113,8,Colorado,San Miguel County,8191,0.4678305457209132,1286.61,6.366342559,38.00450883,-108.4020725,0.0,,,702,69458,79.19,5.3964,5.0,15.2,23.2,56.7,52,35,13,0,0.0,14.374944826,1.8
8115,8,Colorado,Sedgwick County,2303,0.5062961354754668,548.04,4.202248011,40.87595412,-102.3519227,0.028658271819366043,0.0008684324793747286,0.0008684324793747286,338,40009,52.11,2.6075,9.9,30.0,39.3,20.8,41,28,25,8,0.0,13.858229967,11.3
8117,8,Colorado,Summit County,31007,0.4576708485180766,608.36,50.96817674,39.63803232,-106.1150762,0.001096526590769826,0.00029025703873318933,0.0002580062566517238,2056,80078,70.46,51.7523,6.7,19.0,23.3,51.0,56,31,13,0,0.0,13.712538017,3.2
8119,8,Colorado,Teller County,25083,0.4923254794083642,557.06,45.02746562,38.88133511,-105.1614893,0.000598014591556034,0.0001196029183112068,0.0001196029183112068,1851,64850,35.59,23.9633,4.2,25.5,36.2,34.0,39,39,20,2,0.0,12.294382438,6.5
8121,8,Colorado,Washington County,4909,0.4801385210837238,2518.03,1.9495399180000001,39.97015535,-103.202587,0.0,,,646,47869,49.72,0.9821,7.5,32.0,44.3,16.2,45,30,19,7,0.0,13.539430209,13.3
8123,8,Colorado,Weld County,314305,0.4957923036540939,3987.24,78.8277104,40.55499405,-104.3929621,0.0007508630152240658,0.00016226277023909894,0.00016544439318496364,32314,75629,69.57,28.2062,11.9,27.5,33.8,26.7,59,27,12,2,0.5473091423935349,13.748363782,7.1
8125,8,Colorado,Yuma County,10020,0.5020958083832335,2364.41,4.23784369,40.00346839,-102.4258673,0.008483033932135729,0.0005988023952095807,0.0005988023952095807,1191,53253,66.87,1.9244,11.9,33.5,32.5,22.1,52,26,18,4,0.0,14.277809153,9.3
9001,9,Connecticut,Fairfield County,943823,0.5128874799618148,624.89,1510.382627,41.26809896,-73.3881171,0.0017354948968185773,0.0001811780386788625,0.0001832970800669193,92971,91183,82.55,599.2751,10.1,21.7,20.9,47.4,52,30,14,4,0.3776174134345105,10.157896011,7.4
9003,9,Connecticut,Hartford County,892697,0.5137017375436458,735.1,1214.3885189999999,41.80283011,-72.73103891,0.0022235988246851954,0.0006743609533805984,0.0005981872908724909,96957,73037,84.93,517.5772,10.5,26.9,24.9,37.8,50,30,16,5,0.5016842220820726,11.356248016,9.9
9005,9,Connecticut,Litchfield County,181111,0.5055463224210567,920.56,196.7400278,41.7937534,-73.2451475,0.0006736200451656719,0.00020429460386172017,0.00019877312808167367,12441,76304,42.01,96.01,7.4,29.7,27.8,35.1,45,34,18,5,0.06724053204940618,12.063141174,9.1
9007,9,Connecticut,Middlesex County,162682,0.5129024723079382,369.3,440.5144869,41.45949668,-72.53714864,0.0014260950812013619,0.0002643193469468042,0.0002458784622760969,10556,88709,53.29,207.2488,5.8,26.1,26.6,41.5,44,34,18,4,0.3841973912295152,11.316440612,7.2
9009,9,Connecticut,New Haven County,857620,0.5178587253095777,604.51,1418.702751,41.4080325,-72.93620426,0.00237051374734731,0.0005130477367598703,0.00046640703341806395,96563,67720,55.93,608.3357,9.9,30.9,24.3,34.9,51,30,16,5,0.8004174342949092,12.843951967,9.8
9011,9,Connecticut,New London County,266784,0.498838011275039,664.88,401.2513536,41.48896435,-72.10430976,0.001626784214945424,6.747031306225261e-05,9.370876814201751e-05,25063,67790,63.54,185.9508,8.1,29.8,28.8,33.3,49,30,16,4,0.3021020750869617,12.350839725,8.8
9013,9,Connecticut,Tolland County,150921,0.499088927319591,410.21,367.9115575,41.85853803,-72.3308481,0.0008282478912808687,0.00011264171321419817,0.00010601573008395121,10835,89584,31.96,146.3446,5.4,27.5,25.9,41.2,53,30,14,4,1.7880613035959207,10.543489991,8.2
9015,9,Connecticut,Windham County,117027,0.5048749433891324,512.91,228.16283560000002,41.82972709,-71.98182316,0.0013757508950925856,0.00011963051261674655,0.00011963051261674655,13135,65182,40.0,97.1574,11.4,33.0,31.5,24.1,52,30,15,4,0.565014911088894,14.356951843,11.1
10001,10,Delaware,Kent County,178550,0.5182133856062727,586.18,304.59926980000006,39.08646628,-75.56884914,0.00209465135816298,0.00012321478577429293,0.00016241949033884065,23966,54980,38.32,124.6938,12.9,33.2,30.4,23.6,55,27,16,3,1.09784374124895,16.823759503,13.1
10003,10,Delaware,New Castle County,559335,0.5152761761734918,426.29,1312.0997439999999,39.57992638,-75.64054974,0.002209766955402397,0.0003593553058542734,0.0004022634020756792,62976,69562,76.59,526.6345,8.5,30.6,25.0,35.9,55,29,14,4,0.6675820393860566,15.242558128,10.5
10005,10,Delaware,Sussex County,229286,0.5168435927182645,936.08,244.94273990000002,38.66143781,-75.39031349,0.001103425416292316,0.00022679099465296613,0.00022679099465296613,27750,59821,61.8,150.736,12.3,32.8,28.4,26.5,43,27,24,5,0.0054429838716711886,16.085001169,12.9
11001,11,District of Columbia,District of Columbia,702455,0.5255112427130564,61.05,11506.224409999999,38.90417773,-77.01655992,0.003422283277932394,,,107806,82533,181.13,5233.923,9.4,17.2,15.9,57.6,59,24,14,4,1.1564811980838632,15.965592149,8.1
12001,12,Florida,Alachua County,269956,0.5168545985271674,875.02,308.5140911000001,29.67866525,-82.35928158,0.005493487827645986,0.0015928521685015335,0.0014335669516513801,50922,51026,47.3,135.9603,7.6,21.7,28.1,42.5,62,23,12,3,2.455363096208271,16.380852086,8.8
12003,12,Florida,Baker County,28355,0.4739199435725622,585.23,48.45103634,30.33060121,-82.28467476,0.0023981661082701465,0.00014106859460412627,0.00014106859460412627,3944,52804,21.44,17.2411,15.5,42.8,28.4,13.4,56,28,14,2,0.0,22.731956418,15.5
12005,12,Florida,Bay County,185287,0.5038561798723062,758.46,244.2937004,30.26548745,-85.62122584,0.0010308332478803153,0.0004047774533561448,0.00041557151877897534,24276,51777,41.69,137.534,9.7,31.4,36.1,22.8,50,29,18,4,0.30338879683949765,22.708204482,11.4
12007,12,Florida,Bradford County,27732,0.4476417135439204,293.96,94.3393659,29.95079741,-82.16611613,0.0017669118707630176,0.00014423770373575654,0.00014423770373575654,4618,45075,24.46,37.5187,21.7,39.7,28.0,10.6,52,30,17,4,0.02942449156209433,22.940737775,12.3
12009,12,Florida,Brevard County,596849,0.5109265492612034,1015.66,587.6464565,28.29409504,-80.73091022,0.002354029243577521,0.0005110170244065082,0.00048253410829204716,64854,57612,40.63,276.0747,8.0,28.6,34.1,29.3,42,29,22,6,0.37140382240734254,16.866412293,13.1
12011,12,Florida,Broward County,1951260,0.5128440084868239,1209.79,1612.891494,26.15184651,-80.48725556,0.0024225372323524287,0.00044330330145649484,0.0004048665990180704,244310,57200,50.74,683.5062,11.2,27.4,29.5,31.9,50,30,15,4,0.4325287250289557,14.593792551,9.3
12013,12,Florida,Calhoun County,14587,0.4541715225886063,567.33,25.71166693,30.40666734,-85.19394153,0.0017138548022211555,0.0002056625762665387,0.0002056625762665387,2697,38323,17.32,10.6252,21.9,41.9,26.3,9.9,51,29,18,4,0.0,22.384885446,16.8
12015,12,Florida,Charlotte County,184998,0.5121244553995178,680.28,271.9439055,26.90131002,-81.92949121,0.0036757154131396015,0.0002486513367712083,0.0002756786559854701,20243,52724,26.39,154.601,9.7,33.8,33.3,23.2,31,26,34,9,0.014108260629844646,15.760805711,12.9
12017,12,Florida,Citrus County,147929,0.5152133793914648,581.7,254.3046244,28.84804315,-82.47614748,0.002237559910497604,0.00024335999026560038,0.00027039998918400044,22082,41556,24.54,137.5073,11.9,38.3,32.1,17.6,33,27,32,8,0.007341359706345613,19.587156047,15.0
12019,12,Florida,Clay County,216072,0.5068310563145618,604.36,357.5220068,29.98319144,-81.85609986,0.0019715650338775967,0.00014809878188751897,0.00019437965122736867,18846,62835,21.75,135.325,8.9,31.6,35.5,24.1,54,28,15,2,0.025361916398237625,19.886004808,11.4
12021,12,Florida,Collier County,378488,0.5065391769355964,1998.32,189.4030986,26.11091986,-81.34687065,0.002393735072181945,0.0004042400287459576,0.00038310329521675716,39689,70649,43.31,109.2323,13.6,25.4,24.8,36.2,40,24,27,7,0.08899093234131597,14.441909851,8.7
12023,12,Florida,Columbia County,70503,0.4841921620356581,797.57,88.39725667,30.22509788,-82.62160164,0.002155936626810207,0.0003829624271307604,0.000397146220728196,11340,46195,30.65,36.461999999999996,13.3,36.1,35.0,15.6,50,28,18,4,0.4370594159113797,23.294815312,15.0
12027,12,Florida,DeSoto County,37489,0.4337005521619675,637.06,58.8468904,27.18677893,-81.80941373,0.0012003521032836301,0.0002133959294726453,0.0002133959294726453,9013,37233,22.76,23.9444,27.3,43.1,18.1,11.4,53,24,21,4,0.0,21.3119303,14.7
12029,12,Florida,Dixie County,16700,0.44646706586826346,705.05,23.68626339,29.60631086,-83.15724673,0.0,,,3679,37148,16.72,13.4217,20.7,44.7,25.2,9.4,42,30,24,4,0.0,24.651650474,15.4
12031,12,Florida,Duval County,950181,0.5154249558768277,762.19,1246.645849,30.33225875,-81.66976468,0.0033677794020297185,0.000619881896186095,0.000583046808976395,134476,55733,63.89,541.3217,10.5,27.9,32.5,29.2,56,28,14,3,0.5168215318976068,19.790158358,11.9
12033,12,Florida,Escambia County,315534,0.5050327381518315,656.46,480.65990310000007,30.67652764,-87.37284571,0.0035463690125311373,0.0004848922778527829,0.00050390766129799,43832,50644,45.37,217.0292,9.2,27.3,37.1,26.4,54,27,16,4,0.6963370033023383,20.245830172,13.1
12035,12,Florida,Flagler County,112067,0.5187967912052611,485.46,230.84703169999997,29.45933576,-81.31508595,0.0008834001088634477,0.00017846466845726218,0.00016061820161153596,11450,58975,20.15,108.2066,8.0,33.9,33.7,24.4,40,26,27,6,0.008601997019640036,17.427531782,12.1
12037,12,Florida,Franklin County,11736,0.4423142467620995,534.73,21.94752492,29.83791238,-84.82731662,0.0011929107021131562,0.0003408316291751875,0.0003408316291751875,2343,40297,28.91,16.3727,19.7,35.7,27.4,17.1,46,28,21,4,0.0,19.523046263,12.0
12039,12,Florida,Gadsden County,45894,0.5252102671373164,516.33,88.88501540000001,30.57796289,-84.61915825,0.0,0.00010894670327275895,8.715736261820717e-05,10259,42259,26.31,40.0093,20.7,36.6,26.1,16.7,51,29,17,3,0.010502462195493964,20.373594507,20.0
12041,12,Florida,Gilchrist County,18256,0.4835122699386503,349.68,52.20773278,29.72856978,-82.79880657,0.0,,,2856,42186,21.84,21.6712,14.1,42.2,29.6,14.2,49,27,20,4,0.0,21.253157716,15.1
12043,12,Florida,Glades County,13724,0.4375546487904401,806.01,17.02708403,26.95635849,-81.18996211,0.0,,,2457,38680,20.21,8.7604,24.4,40.6,25.1,9.9,46,27,23,4,0.0,20.431303854,20.8
12045,12,Florida,Gulf County,16164,0.4146869586735956,564.01,28.65906633,29.93543004,-85.24270990000002,0.0006805246226181638,0.0001855976243504083,0.0001855976243504083,2667,45426,23.52,17.1894,15.1,37.3,29.9,17.7,46,32,19,4,0.0,20.209306763,12.7
12047,12,Florida,Hamilton County,14310,0.4211740041928721,513.79,27.85184608,30.49673973,-82.94998918,0.0,,,3209,36299,27.5,11.3315,23.9,44.0,22.8,9.3,52,29,16,2,0.0,22.128517406,15.2
12049,12,Florida,Hardee County,27245,0.4723435492750964,637.78,42.71849227,27.49293939,-81.80956574,0.0008808955771701228,0.00014681592952835382,0.00014681592952835382,6956,39169,40.89,15.2874,24.2,47.9,17.4,10.4,59,23,14,3,0.0,19.168882474,16.3
12051,12,Florida,Hendry County,41556,0.4666714794494177,1152.75,36.04944697,26.55386945,-81.16469006,0.0006015978438733276,7.21917412647993e-05,7.21917412647993e-05,9850,44391,30.31,12.8831,34.3,34.8,22.7,8.2,60,25,13,2,0.0,19.793274032,11.2
12053,12,Florida,Hernando County,190865,0.5181148979645299,472.54,403.9128963,28.55364461,-82.42700204,0.002095722107248579,0.00035627275823225837,0.0003457941476960155,26646,45884,20.9,185.2245,12.6,36.4,33.5,17.5,41,27,25,7,0.015487386372566997,19.215223075,15.8
12055,12,Florida,Highlands County,105424,0.5113541508574898,1016.62,103.70049770000001,27.34254618,-81.34071957,0.0026179996964638035,0.0004458187888905752,0.00041736227045075126,21577,39994,24.86,54.8474,15.3,38.0,29.8,17.0,37,23,30,9,0.2577022309910457,18.734961392,15.6
12057,12,Florida,Hillsborough County,1436888,0.510789985023189,1020.21,1408.4237560000001,27.9276559,-82.32013172,0.002447650756356793,0.0004739409056238204,0.0004433191731018701,207358,58361,57.98,579.0759,11.6,27.1,28.6,32.7,55,28,14,4,0.5511967529828351,17.455544372,9.8
12059,12,Florida,Holmes County,19477,0.4693227909842378,478.78,40.68047955,30.86747479,-85.81319222,0.0009755095753966217,0.00015402782769420345,0.00015402782769420345,4232,38040,16.66,18.1545,22.6,39.0,28.1,10.3,48,28,20,4,0.0,20.857747225,14.4
12061,12,Florida,Indian River County,157413,0.5208718466708595,502.87,313.0292123000001,27.69308961,-80.60556721,0.0023759155851168588,0.00026681404966552954,0.0002731667651337564,16775,58228,35.41,161.1609,11.3,29.7,30.6,28.3,39,27,25,9,0.0050821723745815145,15.487215591,12.3
12063,12,Florida,Jackson County,48305,0.4490218403891937,917.76,52.63358612,30.7954597,-85.21500423,0.0014077217679329262,0.00012421074422937583,0.00014491253493427182,9492,39545,24.74,23.0049,19.3,37.4,29.8,13.4,48,30,18,4,0.5064900113859849,23.055297094,15.9
12065,12,Florida,Jefferson County,14288,0.4757138857782755,598.1,23.88898178,30.43669112,-83.89442308,0.0,,,2317,46332,21.46,11.3175,17.9,33.3,26.7,22.0,43,32,20,4,0.0,19.575053118,13.3
12067,12,Florida,Lafayette County,8732,0.42899679340357305,543.41,16.06889825,29.98484137,-83.18166636,0.0,,,1521,42689,23.91,6.2145,23.9,40.8,19.6,15.8,55,26,14,2,0.0,22.301956406,14.7
12069,12,Florida,Lake County,356495,0.5160801694273413,938.38,379.90472939999995,28.76202069,-81.7125123,0.002987419178389599,0.0005497973323609028,0.0005189413596263622,40582,52447,24.7,171.0043,10.7,32.9,33.7,22.7,44,26,25,6,0.15530091586137254,16.845825454,12.6
12071,12,Florida,Lee County,754610,0.5105127151773764,784.51,961.8870377999999,26.58410348,-81.88399313,0.0019904321437563773,0.00029419170167371226,0.0003352725248804018,90400,56343,37.63,509.527,12.0,30.8,29.4,27.8,42,27,25,6,0.4343833238361538,14.343887724,11.0
12073,12,Florida,Leon County,292502,0.5260134973436079,666.85,438.6323761,30.45955727,-84.27491114,0.0023692145694730288,0.00013333242165865532,0.00020854558259430703,57656,51046,49.17,196.7624,6.4,19.1,28.8,45.7,62,23,12,2,2.0991035958728492,17.327578634,8.4
12075,12,Florida,Levy County,40770,0.511822418444935,1118.21,36.4600567,29.31829741,-82.74007147,0.0004660289428501349,,,6521,39037,27.58,18.4769,15.7,41.1,30.5,12.6,44,29,23,4,0.0,23.61738764,14.9
12077,12,Florida,Liberty County,8457,0.3833510701194277,835.56,10.12135574,30.23766008,-84.8829258,0.0,,,1523,40814,21.77,4.1026,18.6,47.9,20.8,12.7,56,31,14,2,0.0,23.553017404,13.3
12079,12,Florida,Madison County,18529,0.4711533272167953,695.95,26.62403908,30.44396917,-83.47398594,0.0012952668789465165,0.00021587781315775267,0.00021587781315775267,3752,38249,26.52,12.4032,19.3,38.1,28.8,13.8,51,27,19,4,0.5863241405364563,20.686696695,17.2
12081,12,Florida,Manatee County,394855,0.517172126476808,742.93,531.4834507,27.47196942,-82.31831044,0.002081776854794798,0.00030137645464790874,0.0002861810031530562,40662,59587,33.7,261.8537,10.8,30.4,29.5,29.3,44,27,24,7,0.3228121715566474,15.218624112,10.3
12083,12,Florida,Marion County,359977,0.5204082483047529,1584.55,227.1793254,29.21227113,-82.05803627,0.0015834344972039882,0.00035280031779808153,0.00035557827305633417,52818,44517,26.52,107.6041,12.7,37.5,30.5,19.4,41,26,27,7,0.4597571511513235,18.665004178,15.1
12085,12,Florida,Martin County,160912,0.5058292731430845,543.46,296.0880286000001,27.0772071,-80.43109784,0.0031570050710947603,0.0005158098836631202,0.000522024460574724,16824,61592,44.08,147.9594,9.5,25.2,32.4,33.0,36,28,25,8,0.014318385204335291,14.321281404,9.2
12086,12,Florida,Miami-Dade County,2761581,0.5145107096261163,1897.72,1455.209936,25.6112362,-80.55170587,0.002349016740772768,0.0004931957454805781,0.0004631404981421874,436103,52043,53.72,543.7868,18.5,27.7,24.9,28.8,53,29,15,4,0.57305724510706,16.479410011,7.5
12087,12,Florida,Monroe County,75027,0.4801204899569488,983.28,76.30278252,25.20904673,-81.07812416,0.0018659949084996067,0.0001865994908499607,0.0001865994908499607,8859,67094,55.76,54.364,8.7,27.3,30.7,33.3,39,33,22,4,0.11982353019579617,17.172898463,6.3
12089,12,Florida,Nassau County,85832,0.5077127411687948,648.64,132.3260977,30.61037141,-81.80297522,0.000605834653742194,0.00010485599776307205,0.00010485599776307205,8882,66898,27.47,61.6397,8.6,32.7,30.4,28.2,45,31,20,3,0.0,19.388869012,11.1
12091,12,Florida,Okaloosa County,207269,0.4934264168785492,930.25,222.80999730000002,30.69143028,-86.59267105,0.0020842480062141467,0.0002364077599641046,0.0002460570562891701,25612,62779,52.38,105.2889,8.2,24.7,36.5,30.6,53,28,17,3,0.2571344484703453,18.468031092,11.1
12093,12,Florida,Okeechobee County,41537,0.4633940823843802,768.91,54.02062660000001,27.386336199999995,-80.88944347,0.002383417194308689,0.00016852444808243254,0.00019259936923706576,8283,42258,28.38,24.3592,25.0,38.4,25.2,11.4,50,26,19,4,0.0,21.460209258,14.3
12095,12,Florida,Orange County,1380645,0.5093995922195785,903.43,1528.225762,28.51367621,-81.31799498,0.003363645252762296,0.0006134813800796005,0.0005432243625262107,211307,58037,66.41,602.6112,11.5,24.5,30.1,33.8,58,27,11,2,1.0710530223192782,15.599881132,9.2
12097,12,Florida,Osceola County,367990,0.506880621756026,1327.45,277.2157143,28.06312234,-81.14882926,0.0013913421560368489,0.0004049023071279111,0.00035598793445474063,48711,50473,24.73,115.6315,13.2,31.9,34.3,20.5,58,28,14,2,0.0228973613413408,17.791410063,11.4
12099,12,Florida,Palm Beach County,1485941,0.5149457481824649,1969.76,754.3766753,26.64676272,-80.46536002,0.0025956616043301853,0.00032571952722214406,0.00032773844991153755,179359,61735,49.97,350.2498,11.8,24.5,28.0,35.7,46,27,20,8,0.4763876896861988,15.916105958,9.9
12101,12,Florida,Pasco County,539630,0.5137297778107222,746.89,722.5026443,28.30810945,-82.40227529,0.0022255990215518037,0.00024831829216314885,0.0002409058058299205,67164,53788,22.01,330.5989,11.0,33.1,32.5,23.4,46,27,22,6,0.4069380872079017,18.629613172,13.0
12103,12,Florida,Pinellas County,975280,0.5203141661881716,273.8,3562.01607,27.93130349,-82.72239666,0.003069887622016241,0.00031888278238044465,0.00032093347551472403,112593,52226,48.96,1863.0022,8.9,28.3,31.9,31.0,43,29,22,6,0.5916536789434829,16.411541985,10.5
12105,12,Florida,Polk County,708009,0.5099935170315631,1797.84,393.81090639999996,27.95027105,-81.69732947,0.002283869272848227,0.00020338724507739308,0.00022033618216717583,109018,51354,33.62,166.5449,15.2,35.4,29.4,20.0,51,26,20,4,0.3484644969202369,19.135508961,14.9
12107,12,Florida,Putnam County,74163,0.5051575583511994,727.62,101.92545559999999,29.60779729,-81.74230285,0.0013348974556045467,8.090287609724525e-05,0.0001348381268287421,13697,39578,27.62,51.3441,19.1,40.7,27.8,12.4,45,28,22,5,0.8813828998287556,23.620471789,17.3
12109,12,Florida,St. Johns County,254261,0.5122452912558355,600.66,423.3027004,29.90096506,-81.43589967,0.0007983922032871733,0.00020844722548876943,0.00018484942637683329,16642,81925,31.24,184.5054,5.4,21.4,29.4,43.7,47,30,19,4,0.12246471145791135,15.059046719,7.9
12111,12,Florida,St. Lucie County,321128,0.5111762287935029,571.93,561.4813002000002,27.37763908,-80.47106649,0.0016348621110585187,0.00023666575321989986,0.00023977977628858275,38398,53377,27.2,249.6092,13.9,33.7,32.1,20.3,46,26,21,5,0.5076978650257841,18.069282607,11.6
12113,12,Florida,Santa Rosa County,179349,0.4903567903919174,1011.61,177.29065549999999,30.693414500000006,-87.02458128,0.0008586610463398179,0.00010593870052244508,0.00011151442160257375,16404,69541,22.51,72.2284,8.4,27.2,36.3,28.1,51,31,16,3,0.027767090979040863,19.218047737,11.2
12115,12,Florida,Sarasota County,426718,0.5234745194718761,555.87,767.6579055999997,27.18546175,-82.33174248,0.002962143617096068,0.00029527697448900676,0.0002999639105920069,43389,61652,43.22,438.9408,7.2,29.1,29.1,34.7,35,26,29,10,0.09428709358405317,15.030472177,9.0
12117,12,Florida,Seminole County,467832,0.5168992287829819,309.22,1512.942242,28.7158582,-81.24060348,0.0004830793960225038,0.00033986559277689426,0.00028856512594264614,46050,67187,43.46,621.7127,5.7,21.7,34.3,38.2,53,30,15,4,0.4251568939277348,15.642006468,9.3
12119,12,Florida,Sumter County,128754,0.5014213150659397,546.93,235.41221000000002,28.70181754,-82.0794267,0.0,3.883374497103003e-05,4.660049396523603e-05,11183,55324,20.54,132.3478,8.4,30.2,30.2,31.1,25,20,50,7,0.008077418953974244,12.204715406,16.1
12121,12,Florida,Suwannee County,44191,0.4853476952320608,688.55,64.17979813,30.19746066,-82.99099670000003,0.0005430970107035369,9.051616845058948e-05,9.051616845058948e-05,7999,38525,24.82,28.0938,18.5,39.3,27.5,14.7,46,27,21,5,0.04100382430811704,22.567956415,14.0
12123,12,Florida,Taylor County,21623,0.4543772834481802,1043.31,20.72538363,30.04848048,-83.60445406,0.0010636821902603706,0.0002774823105027054,0.0002774823105027054,4130,42307,38.76,10.6708,22.6,43.3,26.8,7.4,48,30,19,3,0.08722193960135041,23.787929353,13.3
12125,12,Florida,Union County,14940,0.3558902275769746,243.56,61.34012153,30.04412971,-82.37497443,0.0016733601070950466,0.002008032128514056,0.0016733601070950466,2118,45906,19.63,19.0015,23.1,37.9,30.7,8.3,51,32,16,2,0.0,23.264138474,13.8
12127,12,Florida,Volusia County,547538,0.5119662927504575,1101.03,497.2961681,29.05858895,-81.18263252,0.002626301736135209,0.0005734761788222918,0.0005077273175560418,70499,50285,31.17,238.0389,10.0,32.2,34.2,23.6,42,28,22,6,0.7367634757770237,18.360185779,12.9
12129,12,Florida,Wakulla County,32461,0.4662210036659376,606.42,53.52890736,30.16548905,-84.39895211,0.0,,,3543,58203,19.02,22.5949,12.1,35.9,33.6,18.4,52,32,15,2,0.0,19.240291999,8.4
12131,12,Florida,Walton County,71375,0.4945008756567426,1037.63,68.78656168,30.64204028,-86.16935664,0.0017653239929947462,0.0004343257443082312,0.0003922942206654991,7868,60973,38.13,51.449,11.5,27.6,32.5,28.4,46,29,20,4,0.031103327495621717,21.240024187,12.8
12133,12,Florida,Washington County,24880,0.4634244372990354,582.8,42.69045985,30.61359259,-85.66002461,0.0023713826366559485,0.00012057877813504824,0.0001607717041800643,5104,39225,20.02,18.7388,18.8,41.5,28.0,11.7,50,29,18,4,0.1258038585209003,22.898720423,14.8
13001,13,Georgia,Appling County,18507,0.5007294537202139,507.08,36.49719965,31.74847232,-82.28909114,0.008051007726806073,0.00016210082671421625,0.00016210082671421625,3954,42781,76.81,16.8869,25.5,38.3,26.5,9.7,53,27,16,3,0.0,20.18941483,17.7
13003,13,Georgia,Atkinson County,8297,0.4952392430999156,339.38,24.44752195,31.29633502,-82.87545866,0.0,,,2156,36779,28.64,10.31,30.9,40.3,18.9,9.9,60,26,14,2,0.0,21.822200509,13.3
13005,13,Georgia,Bacon County,11185,0.5111309789897184,258.58,43.25547219,31.55456473,-82.45936528,0.01010281627179258,0.0003576218149307108,0.0003576218149307108,2473,38775,31.85,18.5475,18.5,41.9,29.6,10.1,53,27,16,3,0.0,19.37887099,18.4
13007,13,Georgia,Baker County,3092,0.5054980595084088,341.94,9.04252208,31.32669878,-84.44218806,0.0,,,704,38288,27.51,4.8459,21.7,38.9,27.1,12.3,46,30,19,4,0.0,17.118404591,20.6
13009,13,Georgia,Baldwin County,44823,0.4926265533319947,257.84,173.84036609999995,33.06882326,-83.24701748,0.001985587756285835,0.0002900296722664703,0.0002677196974767419,9313,42727,27.32,79.9876,15.6,36.4,27.1,20.9,57,26,15,2,3.2297258104098336,19.817938403,11.6
13011,13,Georgia,Banks County,18988,0.4920476090162208,232.09,81.81308975,34.35607081,-83.49644388,0.0,,,2469,55384,23.39,33.4439,22.9,40.6,23.6,12.8,51,28,16,2,0.0,17.722278257,11.0
13013,13,Georgia,Barrow County,80809,0.5099926988330508,160.31,504.07959580000005,33.99148694,-83.71436292,0.0003712457770792857,7.424915541585716e-05,7.424915541585716e-05,7651,61413,24.52,180.5938,17.0,34.4,31.1,17.6,60,25,12,2,0.00425695157717581,17.083548591,17.5
13015,13,Georgia,Bartow County,106408,0.5068227952785505,459.54,231.5532924,34.23732119,-84.83887523,0.0007424253815502594,0.00019735358243741068,0.00019735358243741068,12768,57409,43.38,90.3773,17.0,33.0,30.6,19.5,56,29,14,2,0.0,19.176366416,13.8
13017,13,Georgia,Ben Hill County,16787,0.5255257044141299,250.12,67.11578442,31.76095874,-83.22145359,0.003395484601179484,0.00029784952641925296,0.00029784952641925296,4305,35020,28.05,31.9647,17.3,44.2,26.4,12.0,53,27,17,4,0.0,20.562497546,13.3
13019,13,Georgia,Berrien County,19252,0.5089341367130688,451.9,42.60234565,31.27590016,-83.22529920000002,0.0020257635570330355,0.0005194265530853937,0.0004674838977768544,4144,39412,18.65,19.5043,21.9,42.3,23.9,11.8,53,27,18,3,0.0,20.009497322,13.9
13021,13,Georgia,Bibb County,153095,0.5307031581697639,249.76,612.9684497000002,32.80904227,-83.70489165,0.006244488716156635,0.0014566119076390475,0.0012933146085763742,36326,41390,52.0,280.4452,14.3,31.6,28.5,25.7,55,26,14,4,1.055057317351971,19.066923251,13.7
13023,13,Georgia,Bleckley County,12838,0.5229786571116997,215.87,59.4709779,32.43829035,-83.33035166,0.0018694500701043773,0.00023368125876304716,0.00023368125876304716,2156,46019,18.19,24.6167,12.4,41.7,28.7,17.2,54,25,17,4,0.0,18.019173683,8.3
13025,13,Georgia,Brantley County,18897,0.5072233687886967,442.36,42.71860024,31.19576557,-81.97743999,0.0,,,3419,41874,12.95,18.4352,20.0,46.6,25.2,8.2,53,29,16,2,0.0,19.729357472,7.0
13027,13,Georgia,Brooks County,15513,0.5120866370141172,493.05,31.46334043,30.83922642,-83.58303423,0.0015470895378070005,0.0002578482563011668,0.0002578482563011668,3768,36354,18.37,15.8361,17.2,38.1,29.5,15.2,49,28,19,4,0.0,18.906866407,12.8
13029,13,Georgia,Bryan County,38109,0.5068094150987955,435.97,87.41197789,32.00979311,-81.44002948,0.0,,,3264,79658,22.51,33.9358,8.1,25.6,33.8,32.6,55,29,12,2,0.0,16.512096342,11.2
13031,13,Georgia,Bulloch County,77296,0.5094312771682882,672.81,114.88533170000001,32.39577406,-81.74811421,0.0019147174498033532,0.00045280480231836063,0.0004010556820534051,16439,43766,28.64,46.6803,13.1,27.3,32.2,27.4,65,21,11,2,3.500853860484372,19.37250384,11.9
13033,13,Georgia,Burke County,22423,0.5236141461891808,826.97,27.11464745,33.05917989,-81.99928721,0.0017838826205235695,0.0003567765241047139,0.0003121794585916247,4853,42785,110.4,12.1794,20.8,37.4,29.1,12.6,55,27,15,3,0.0,20.506947721,14.1
13035,13,Georgia,Butts County,24193,0.4719960319100566,184.39,131.2055968,33.283094500000004,-83.95435040000002,0.0009506882155995537,0.0001653370809738354,0.0001653370809738354,4228,48831,23.6,51.2609,20.8,44.0,23.8,11.4,53,29,16,3,0.0,19.249375017,12.6
13037,13,Georgia,Calhoun County,6352,0.39704030226700254,280.37,22.6557763,31.53169785,-84.62725131,0.0,,,1723,33393,19.39,8.5566,25.7,39.3,25.7,9.4,52,30,13,4,0.0,23.637893693,18.8
13039,13,Georgia,Camden County,53677,0.4882538144829257,613.03,87.56015203,30.92951916,-81.66601818,0.0007451981295526947,7.451981295526948e-05,9.314976619408684e-05,8134,56555,35.39,36.4517,8.2,31.5,35.8,24.5,60,26,12,2,0.0,16.875882229,16.9
13043,13,Georgia,Candler County,10836,0.5096899224806202,243.04,44.58525346,32.40209349,-82.07702563,0.0023071244001476557,0.0006459948320413437,0.0005537098560354374,2587,35841,22.47,19.6141,23.4,36.1,26.4,14.1,53,27,17,4,0.0,21.666477683,12.0
13045,13,Georgia,Carroll County,118121,0.5122543832172095,499.08,236.67748659999998,33.58138199,-85.07976677,0.0023450529541741093,0.00017778379796987834,0.0002370450639598378,19187,52502,34.42,91.2279,16.3,33.2,30.0,20.6,59,26,14,2,1.050482132728304,18.040925947,13.1
13047,13,Georgia,Catoosa County,67420,0.5163156333432216,162.16,415.76221019999997,34.89872298,-85.13757014,0.0005043013942450311,0.00010382675763868289,8.899436369029962e-05,7911,55807,20.61,169.7768,12.6,32.4,34.3,20.8,53,27,17,3,0.0,14.998338274,16.7
13049,13,Georgia,Charlton County,12968,0.4265885256014806,773.58,16.7636185,30.78371028,-82.13951596,0.0,,,2753,40499,14.87,5.852,26.7,39.1,23.7,10.5,53,29,15,2,0.0,19.322826051,16.7
